{"results": [{"business_status": "OPERATIONAL", "geometry": {"location": {"lat": -25.7452359, "lng": -53.05622259999999}, "viewport": {"northeast": {"lat": -25.7439934697085, "lng": -53.05491006970849}, "southwest": {"lat": -25.7466914302915, "lng": -53.05760803029149}}}, "icon": "https://maps.gstatic.com/mapfiles/place_api/icons/generic_business-71.png", "id": "3c0b02a4fefcde24bf3e6d6a5f38cf1701488515", "name": "Escrit\u00f3rio Delta de Contabilidade", "opening_hours": {"open_now": false}, "photos": [{"height": 2340, "html_attributions": ["<a href=\"https://maps.google.com/maps/contrib/114668510125850572651\">Escrit\u00f3rio Delta de Contabilidade</a>"], "photo_reference": "CmRaAAAAoRoH6JGiDaj5kUFpI7dURAsd-0VyqQjsdT22C-lothyNiTZ9O39gEqxgqwzAPO1pqj30kLOc_LDxoVml7OsYbhq3ufRo69v1wTdHPqzaFGs-e9u-7VOu1_8A2aBfZx5gEhA6h4Ok6QgoZcb7tYbtaUdYGhS_cjfFwB14ri7AxckwJC7DDHlEVQ", "width": 4160}], "place_id": "ChIJn_x2dpJH8JQRzziEsei--HU", "plus_code": {"compound_code": "7W3V+WG Centro, Dois Vizinhos - State of Paran\u00e1, Brazil", "global_code": "58687W3V+WG"}, "rating": 3.5, "reference": "ChIJn_x2dpJH8JQRzziEsei--HU", "scope": "GOOGLE", "types": ["accounting", "finance", "point_of_interest", "establishment"], "user_ratings_total": 2, "vicinity": "Rua Marechal Floriano Peixoto, 52 - Centro, Dois Vizinhos"}, {"business_status": "OPERATIONAL", "geometry": {"location": {"lat": -25.740281, "lng": -53.056479}, "viewport": {"northeast": {"lat": -25.7389374197085, "lng": -53.05515631970851}, "southwest": {"lat": -25.74163538029151, "lng": -53.0578542802915}}}, "icon": "https://maps.gstatic.com/mapfiles/place_api/icons/generic_business-71.png", "id": "61c8ba13d5749598510619e551ff3e88d0cdb3dd", "name": "Escrit\u00f3rio Contabil Bagattini", "place_id": "ChIJs0m8qY1H8JQRwGYTM9TiVO8", "plus_code": {"compound_code": "7W5V+VC Centro, Dois Vizinhos - State of Paran\u00e1, Brazil", "global_code": "58687W5V+VC"}, "reference": "ChIJs0m8qY1H8JQRwGYTM9TiVO8", "scope": "GOOGLE", "types": ["accounting", "finance", "point_of_interest", "establishment"], "vicinity": "Rua Sete de Setembro, 70 - Sala 103 - Centro, Dois Vizinhos"}, {"business_status": "OPERATIONAL", "geometry": {"location": {"lat": -25.754502, "lng": -53.060006}, "viewport": {"northeast": {"lat": -25.7531395697085, "lng": -53.05858731970849}, "southwest": {"lat": -25.7558375302915, "lng": -53.06128528029149}}}, "icon": "https://maps.gstatic.com/mapfiles/place_api/icons/generic_business-71.png", "id": "046939e3d694070e88a5609111eef5d255bd5321", "name": "Escritorio Aguiar - Contabilidade Contador Assessoria Cont\u00e1bil Per\u00edcias R H Const de Empresas", "opening_hours": {"open_now": false}, "photos": [{"height": 3072, "html_attributions": ["<a href=\"https://maps.google.com/maps/contrib/102850259617969435604\">Escritorio Aguiar - Contabilidade Contador Assessoria Cont\u00e1bil Per\u00edcias R H Const de Empresas</a>"], "photo_reference": "CmRaAAAASHB9BYCeC3FQX70KLIubUMtllOxPJGIU7CNHeCN10lOp7jLCg0vUkvb6eaAOnqdn_SntyrCKZNa-joTHDymnDMgbiWQ2CL3zdu2vBbttvwdPVtRsLOgi6J0FHHyCbcCKEhBmO6ck9OnqKCrAGrGSEiF1GhQtdWTpEAQrx5iv5ouhZmbDh-rKCw", "width": 4608}], "place_id": "ChIJC_w3nZJH8JQRMoqhwQYm2O8", "plus_code": {"compound_code": "6WWQ+5X Centro, Dois Vizinhos - State of Paran\u00e1, Brazil", "global_code": "58686WWQ+5X"}, "rating": 4, "reference": "ChIJC_w3nZJH8JQRMoqhwQYm2O8", "scope": "GOOGLE", "types": ["accounting", "finance", "point_of_interest", "establishment"], "user_ratings_total": 4, "vicinity": "Avenida Presidente Kenedy, 374 - Centro, Dois Vizinhos"}, {"business_status": "OPERATIONAL", "geometry": {"location": {"lat": -25.7570253, "lng": -53.0587901}, "viewport": {"northeast": {"lat": -25.7556179697085, "lng": -53.05745561970851}, "southwest": {"lat": -25.7583159302915, "lng": -53.06015358029151}}}, "icon": "https://maps.gstatic.com/mapfiles/place_api/icons/generic_business-71.png", "id": "1e7fb2bf707616846f4def3482a6c2f03669f6f0", "name": "Escrit\u00f3rio Gerencial de Contabilidade", "opening_hours": {"open_now": false}, "photos": [{"height": 2848, "html_attributions": ["<a href=\"https://maps.google.com/maps/contrib/109606348629362165806\">Escrit\u00f3rio Gerencial de Contabilidade</a>"], "photo_reference": "CmRaAAAAcjRBtSVDXelmvbKns5Iomkw6KPTch6sR5GJJuCY4YW9v97VNkBwqtXv5wuOviGkH8DdbFqrrWTnw7xIGoXbpFr30V6RtEitNNgJymLzomZ453D1PKyRZ3y44uPlBv7zHEhCtw3PFBMeyAs9kKNalrtFSGhQefQXiG7DJ5PFtDRzVXW3M6NW03Q", "width": 4288}], "place_id": "ChIJC_DVb5tH8JQRh4VCY8_5X24", "plus_code": {"compound_code": "6WVR+5F Centro Sul, Dois Vizinhos - State of Paran\u00e1, Brazil", "global_code": "58686WVR+5F"}, "rating": 4.8, "reference": "ChIJC_DVb5tH8JQRh4VCY8_5X24", "scope": "GOOGLE", "types": ["accounting", "finance", "point_of_interest", "establishment"], "user_ratings_total": 6, "vicinity": "Rua Marechal Rondon, 883, Dois Vizinhos"}, {"business_status": "OPERATIONAL", "geometry": {"location": {"lat": -25.7589954, "lng": -53.0595723}, "viewport": {"northeast": {"lat": -25.7576775197085, "lng": -53.0583860197085}, "southwest": {"lat": -25.7603754802915, "lng": -53.0610839802915}}}, "icon": "https://maps.gstatic.com/mapfiles/place_api/icons/generic_business-71.png", "id": "a68851e4d887bcec430d2b956ef0f0a7d1dc3a94", "name": "Servdata Contabilidade - Contador - Empresas - Fiscal - Imposto de Renda", "opening_hours": {"open_now": false}, "place_id": "ChIJp38cZpxH8JQRFD2D5GBNsIM", "plus_code": {"compound_code": "6WRR+C5 Centro Sul, Dois Vizinhos - State of Paran\u00e1, Brazil", "global_code": "58686WRR+C5"}, "rating": 5, "reference": "ChIJp38cZpxH8JQRFD2D5GBNsIM", "scope": "GOOGLE", "types": ["accounting", "finance", "point_of_interest", "establishment"], "user_ratings_total": 1, "vicinity": "Rua Tiradentes, 845, Dois Vizinhos"}, {"business_status": "OPERATIONAL", "geometry": {"location": {"lat": -25.7458158, "lng": -53.0560494}, "viewport": {"northeast": {"lat": -25.7444841197085, "lng": -53.0547906697085}, "southwest": {"lat": -25.7471820802915, "lng": -53.0574886302915}}}, "icon": "https://maps.gstatic.com/mapfiles/place_api/icons/generic_business-71.png", "id": "a2f7dae45c9491f059c7cffafa83bfd9d1eda822", "name": "MC2 Consultoria - Contabilidade - Sistemas - Treinamentos - Cursos - Controladoria - Auditoria", "opening_hours": {"open_now": false}, "place_id": "ChIJRfFp8o1H8JQRfkPFKUM_Jj8", "plus_code": {"compound_code": "7W3V+MH Centro Norte, Dois Vizinhos - State of Paran\u00e1, Brazil", "global_code": "58687W3V+MH"}, "reference": "ChIJRfFp8o1H8JQRfkPFKUM_Jj8", "scope": "GOOGLE", "types": ["accounting", "finance", "point_of_interest", "establishment"], "vicinity": "Rua Jo\u00e3o Dalpasquale, 266 - Sala 106 - Centro Norte, Dois Vizinhos"}, {"business_status": "OPERATIONAL", "geometry": {"location": {"lat": -25.7460386, "lng": -53.0545957}, "viewport": {"northeast": {"lat": -25.7447398697085, "lng": -53.05323346970849}, "southwest": {"lat": -25.7474378302915, "lng": -53.05593143029149}}}, "icon": "https://maps.gstatic.com/mapfiles/place_api/icons/generic_business-71.png", "id": "c692ca6ed284e89e92ebbc751f91a34a7e57ea79", "name": "Escrit\u00f3rio de Contabilidade Servdata Norte", "opening_hours": {"open_now": false}, "place_id": "ChIJa4zfAYxH8JQRER3oKby7MjA", "plus_code": {"compound_code": "7W3W+H5 Centro, Dois Vizinhos - State of Paran\u00e1, Brazil", "global_code": "58687W3W+H5"}, "rating": 4.8, "reference": "ChIJa4zfAYxH8JQRER3oKby7MjA", "scope": "GOOGLE", "types": ["accounting", "finance", "point_of_interest", "establishment"], "user_ratings_total": 5, "vicinity": "Rua Zacarias de Vasconcelos, 392, Dois Vizinhos"}, {"business_status": "OPERATIONAL", "geometry": {"location": {"lat": -25.7469432, "lng": -53.0537561}, "viewport": {"northeast": {"lat": -25.7456643697085, "lng": -53.0524847697085}, "southwest": {"lat": -25.7483623302915, "lng": -53.0551827302915}}}, "icon": "https://maps.gstatic.com/mapfiles/place_api/icons/generic_business-71.png", "id": "fccb71eb3a281fbc6d1c98c67fab9daeb1822b96", "name": "Escrit\u00f3rio Alian\u00e7a Cont\u00e1bil", "opening_hours": {"open_now": false}, "place_id": "ChIJgxmz2Y1H8JQRmGqc80_RBYE", "plus_code": {"compound_code": "7W3W+6F Centro, Dois Vizinhos - State of Paran\u00e1, Brazil", "global_code": "58687W3W+6F"}, "rating": 5, "reference": "ChIJgxmz2Y1H8JQRmGqc80_RBYE", "scope": "GOOGLE", "types": ["accounting", "finance", "point_of_interest", "establishment"], "user_ratings_total": 2, "vicinity": "Rua Vinte e Oito de Novembro, 189 - Centro, Dois Vizinhos"}, {"business_status": "OPERATIONAL", "geometry": {"location": {"lat": -25.7439113, "lng": -53.0564745}, "viewport": {"northeast": {"lat": -25.7425882697085, "lng": -53.0552394697085}, "southwest": {"lat": -25.7452862302915, "lng": -53.0579374302915}}}, "icon": "https://maps.gstatic.com/mapfiles/place_api/icons/generic_business-71.png", "id": "b016b52cbae4b95b60a7377fa26688c408c476bd", "name": "ESCRIT\u00d3RIO CONT\u00c1BIL DOIS VIZINHOS", "opening_hours": {"open_now": false}, "place_id": "ChIJO9EffY1H8JQRi6dvxO4aOZg", "plus_code": {"compound_code": "7W4V+CC Centro, Dois Vizinhos - State of Paran\u00e1, Brazil", "global_code": "58687W4V+CC"}, "reference": "ChIJO9EffY1H8JQRi6dvxO4aOZg", "scope": "GOOGLE", "types": ["accounting", "finance", "point_of_interest", "establishment"], "vicinity": "Rua Jo\u00e3o Dalpasquale, 474 - Centro, Dois Vizinhos"}, {"business_status": "OPERATIONAL", "geometry": {"location": {"lat": -25.7439143, "lng": -53.05452529999999}, "viewport": {"northeast": {"lat": -25.7425744197085, "lng": -53.05323171970849}, "southwest": {"lat": -25.7452723802915, "lng": -53.05592968029149}}}, "icon": "https://maps.gstatic.com/mapfiles/place_api/icons/generic_business-71.png", "id": "9f821e1198ec7471b5e943fbd482954ff78321c1", "name": "Escrit\u00f3rio Alvorada Contabilidade", "opening_hours": {"open_now": false}, "place_id": "ChIJEeYYqI1H8JQRN0sX9CNG_IQ", "plus_code": {"compound_code": "7W4W+C5 Centro, Dois Vizinhos - State of Paran\u00e1, Brazil", "global_code": "58687W4W+C5"}, "rating": 5, "reference": "ChIJEeYYqI1H8JQRN0sX9CNG_IQ", "scope": "GOOGLE", "types": ["accounting", "finance", "point_of_interest", "establishment"], "user_ratings_total": 1, "vicinity": "Rua Castro Alves, 340, Dois Vizinhos"}, {"business_status": "OPERATIONAL", "geometry": {"location": {"lat": -25.749245, "lng": -53.05293469999999}, "viewport": {"northeast": {"lat": -25.7479236697085, "lng": -53.0515264197085}, "southwest": {"lat": -25.7506216302915, "lng": -53.0542243802915}}}, "icon": "https://maps.gstatic.com/mapfiles/place_api/icons/generic_business-71.png", "id": "cd97c31e3cfb548c36002af7f07f87b1e6e6890a", "name": "Argos Contabilidade", "opening_hours": {"open_now": false}, "place_id": "ChIJN0FLEo9H8JQRbct5X6mf4z8", "plus_code": {"compound_code": "7W2W+8R Centro, Dois Vizinhos - State of Paran\u00e1, Brazil", "global_code": "58687W2W+8R"}, "rating": 5, "reference": "ChIJN0FLEo9H8JQRbct5X6mf4z8", "scope": "GOOGLE", "types": ["accounting", "finance", "point_of_interest", "establishment"], "user_ratings_total": 4, "vicinity": "Travessa Doutor Arnaldo Busato, 102 - Centro, Dois Vizinhos"}, {"business_status": "OPERATIONAL", "geometry": {"location": {"lat": -25.7431368, "lng": -53.0560072}, "viewport": {"northeast": {"lat": -25.7417878197085, "lng": -53.0546582197085}, "southwest": {"lat": -25.7444857802915, "lng": -53.05735618029149}}}, "icon": "https://maps.gstatic.com/mapfiles/place_api/icons/generic_business-71.png", "id": "b4311e0ad22e7c099c2dc2cb7383bdbac110ed1a", "name": "Escrit\u00f3rio Cont\u00e1bil Aqu\u00e1rius", "opening_hours": {"open_now": false}, "place_id": "ChIJpzE7a41H8JQRWdsGDx7YhYU", "plus_code": {"compound_code": "7W4V+PH Centro Norte, Dois Vizinhos - State of Paran\u00e1, Brazil", "global_code": "58687W4V+PH"}, "reference": "ChIJpzE7a41H8JQRWdsGDx7YhYU", "scope": "GOOGLE", "types": ["accounting", "finance", "point_of_interest", "establishment"], "vicinity": "Alameda Prudente de Moraes, 504 - SALA 07 - Centro Norte, Dois Vizinhos"}, {"business_status": "OPERATIONAL", "geometry": {"location": {"lat": -25.7582464, "lng": -53.0526732}, "viewport": {"northeast": {"lat": -25.7568300197085, "lng": -53.0513377197085}, "southwest": {"lat": -25.7595279802915, "lng": -53.0540356802915}}}, "icon": "https://maps.gstatic.com/mapfiles/place_api/icons/generic_business-71.png", "id": "aa4b764853989f7bb1769b3724f8719dfdb747b8", "name": "Escrit\u00f3rio Cont\u00e1bil Mezzalira", "opening_hours": {"open_now": false}, "place_id": "ChIJr2sQyYNH8JQRQSmZFeqjnSw", "plus_code": {"compound_code": "6WRW+PW S\u00e3o Francisco Xavier, Dois Vizinhos - State of Paran\u00e1, Brazil", "global_code": "58686WRW+PW"}, "reference": "ChIJr2sQyYNH8JQRQSmZFeqjnSw", "scope": "GOOGLE", "types": ["accounting", "finance", "point_of_interest", "establishment"], "vicinity": "Rua Paran\u00e1, 771, Dois Vizinhos"}, {"business_status": "OPERATIONAL", "geometry": {"location": {"lat": -25.7456425, "lng": -53.0564738}, "viewport": {"northeast": {"lat": -25.7442756197085, "lng": -53.0550316697085}, "southwest": {"lat": -25.74697358029151, "lng": -53.0577296302915}}}, "icon": "https://maps.gstatic.com/mapfiles/place_api/icons/bank_dollar-71.png", "id": "8198714580761ca6f9dd1a468391bb0f33dfca12", "name": "Banco do Brasil", "opening_hours": {"open_now": true}, "place_id": "ChIJIV-s5JVH8JQRTkP1BWyutmY", "plus_code": {"compound_code": "7W3V+PC Centro, Dois Vizinhos - State of Paran\u00e1, Brazil", "global_code": "58687W3V+PC"}, "rating": 3.3, "reference": "ChIJIV-s5JVH8JQRTkP1BWyutmY", "scope": "GOOGLE", "types": ["bank", "atm", "finance", "point_of_interest", "establishment"], "user_ratings_total": 17, "vicinity": "Rua Jo\u00e3o Dalpasquale, 277 - Centro, Dois Vizinhos"}, {"business_status": "OPERATIONAL", "geometry": {"location": {"lat": -25.7461615, "lng": -53.0560298}, "viewport": {"northeast": {"lat": -25.7448241197085, "lng": -53.0547413697085}, "southwest": {"lat": -25.74752208029151, "lng": -53.0574393302915}}}, "icon": "https://maps.gstatic.com/mapfiles/place_api/icons/bank_dollar-71.png", "id": "b8e0955875c0668f0c62a23a9f63db8d783bae7b", "name": "Ag\u00eancia Ita\u00fa", "opening_hours": {"open_now": false}, "place_id": "ChIJAaqC8I1H8JQRnBmWovBZBLE", "plus_code": {"compound_code": "7W3V+GH Centro, Dois Vizinhos - State of Paran\u00e1, Brazil", "global_code": "58687W3V+GH"}, "rating": 4.3, "reference": "ChIJAaqC8I1H8JQRnBmWovBZBLE", "scope": "GOOGLE", "types": ["bank", "atm", "finance", "point_of_interest", "establishment"], "user_ratings_total": 3, "vicinity": "Rua Jo\u00e3o Dalpasquale, 240 - Centro, Dois Vizinhos"}, {"business_status": "OPERATIONAL", "geometry": {"location": {"lat": -25.7460339, "lng": -53.0560513}, "viewport": {"northeast": {"lat": -25.7446973197085, "lng": -53.0547669697085}, "southwest": {"lat": -25.74739528029151, "lng": -53.0574649302915}}}, "icon": "https://maps.gstatic.com/mapfiles/place_api/icons/generic_business-71.png", "id": "13727c6cf4ef596d230b8c3abe6d233b0be4dbfd", "name": "Sicredi", "place_id": "ChIJpfvH8Y1H8JQRU88EAQxt_Kk", "plus_code": {"compound_code": "7W3V+HH Centro, Dois Vizinhos - State of Paran\u00e1, Brazil", "global_code": "58687W3V+HH"}, "rating": 5, "reference": "ChIJpfvH8Y1H8JQRU88EAQxt_Kk", "scope": "GOOGLE", "types": ["atm", "finance", "point_of_interest", "establishment"], "user_ratings_total": 1, "vicinity": "Centro, Dois Vizinhos"}, {"business_status": "OPERATIONAL", "geometry": {"location": {"lat": -25.7439423, "lng": -53.05581240000001}, "viewport": {"northeast": {"lat": -25.7425800197085, "lng": -53.0543961697085}, "southwest": {"lat": -25.7452779802915, "lng": -53.0570941302915}}}, "icon": "https://maps.gstatic.com/mapfiles/place_api/icons/bank_dollar-71.png", "id": "5697a437d5290ff43bc133ac206b6dedc6b9d3ae", "name": "Caixa Econ\u00f4mica Federal", "opening_hours": {"open_now": true}, "place_id": "ChIJTQ5AcY1H8JQRpVkr01lpp-A", "plus_code": {"compound_code": "7W4V+CM Centro Norte, Dois Vizinhos - State of Paran\u00e1, Brazil", "global_code": "58687W4V+CM"}, "rating": 4.3, "reference": "ChIJTQ5AcY1H8JQRpVkr01lpp-A", "scope": "GOOGLE", "types": ["bank", "atm", "finance", "point_of_interest", "establishment"], "user_ratings_total": 10, "vicinity": "Rua Sete de Setembro, 219, Dois Vizinhos"}, {"business_status": "OPERATIONAL", "geometry": {"location": {"lat": -25.7464475, "lng": -53.0562664}, "viewport": {"northeast": {"lat": -25.7450822197085, "lng": -53.0548324697085}, "southwest": {"lat": -25.7477801802915, "lng": -53.0575304302915}}}, "icon": "https://maps.gstatic.com/mapfiles/place_api/icons/bank_dollar-71.png", "id": "61f69b3d71d5d8cbe4c4e4a6cfa7f9656802eefb", "name": "Bradesco Dia&Noite", "opening_hours": {"open_now": true}, "place_id": "ChIJIV-s5JVH8JQRHrkVctgJ6-0", "plus_code": {"compound_code": "7W3V+CF Centro, Dois Vizinhos - State of Paran\u00e1, Brazil", "global_code": "58687W3V+CF"}, "rating": 4, "reference": "ChIJIV-s5JVH8JQRHrkVctgJ6-0", "scope": "GOOGLE", "types": ["bank", "atm", "finance", "point_of_interest", "establishment"], "user_ratings_total": 9, "vicinity": "Rua Jo\u00e3o Dalpasquale, 191 - Centro, Dois Vizinhos"}, {"business_status": "OPERATIONAL", "geometry": {"location": {"lat": -25.7527657, "lng": -53.0567038}, "viewport": {"northeast": {"lat": -25.7514330697085, "lng": -53.0554387697085}, "southwest": {"lat": -25.7541310302915, "lng": -53.0581367302915}}}, "icon": "https://maps.gstatic.com/mapfiles/place_api/icons/restaurant-71.png", "id": "a8c19802cf7c27dbe39adb014f8b6225a8a2f312", "name": "Panificadora Antonello", "opening_hours": {"open_now": false}, "photos": [{"height": 2448, "html_attributions": ["<a href=\"https://maps.google.com/maps/contrib/117249515520742965507\">Adriano Vandre</a>"], "photo_reference": "CmRaAAAAeP7KpJL6MxdH1Ebppyh-rImnEkuY2RsbV2_zW9k-qs4sHOWpvcbLMxWnOoMxF26b-g48fdxp_UD6Nv2Rmnd4rnzdaC77YvCCvCH7ahUhRe1iSnG_NHZivfL2sjWMwGkBEhB_70Lg4vIXjp7ZVL5SLoguGhQyTyYU6YXSXb5J9pf7zeSlxPHDnQ", "width": 3264}], "place_id": "ChIJsUqnsppH8JQRTI9KSjutQrg", "plus_code": {"compound_code": "6WWV+V8 Centro, Dois Vizinhos - State of Paran\u00e1, Brazil", "global_code": "58686WWV+V8"}, "price_level": 1, "rating": 4.6, "reference": "ChIJsUqnsppH8JQRTI9KSjutQrg", "scope": "GOOGLE", "types": ["bakery", "food", "point_of_interest", "store", "establishment"], "user_ratings_total": 97, "vicinity": "Rua Jos\u00e9 de Alen\u00e7ar, 265 - Centro, Dois Vizinhos"}, {"business_status": "OPERATIONAL", "geometry": {"location": {"lat": -25.7454765, "lng": -53.0551928}, "viewport": {"northeast": {"lat": -25.7441398697085, "lng": -53.0538919197085}, "southwest": {"lat": -25.7468378302915, "lng": -53.0565898802915}}}, "icon": "https://maps.gstatic.com/mapfiles/place_api/icons/restaurant-71.png", "id": "2d051916381d954c455ee60c99f6f36d41e05a12", "name": "Panificadora Yohanna", "opening_hours": {"open_now": false}, "photos": [{"height": 4128, "html_attributions": ["<a href=\"https://maps.google.com/maps/contrib/102531089980871906816\">Panificadora Yohanna</a>"], "photo_reference": "CmRaAAAARFLVXz6r_06gWHjOk9SdMaGEZ-_3xzY2D9h4Ld4qPcvfq3orOsM75c-GXjD3ETS4J-SowD7ur55kGvFeI01gNBY2afvPV-6-5r74y5HAQ5vu8s9GAaKl8dsVXgZ6HB9KEhDDw6js6o_IFnltM1tq6rG0GhTMvnxTbB2RLDS27AVSBff0yO3gUA", "width": 3096}], "place_id": "ChIJ7ypJwI1H8JQRqe-rVxjDMOM", "plus_code": {"compound_code": "7W3V+RW Centro, Dois Vizinhos - State of Paran\u00e1, Brazil", "global_code": "58687W3V+RW"}, "rating": 3.9, "reference": "ChIJ7ypJwI1H8JQRqe-rVxjDMOM", "scope": "GOOGLE", "types": ["bakery", "food", "point_of_interest", "store", "establishment"], "user_ratings_total": 14, "vicinity": "Rua Sete de Setembro, 36 - Centro, Dois Vizinhos"}, {"business_status": "OPERATIONAL", "geometry": {"location": {"lat": -25.7475579, "lng": -53.0534774}, "viewport": {"northeast": {"lat": -25.7461887197085, "lng": -53.0521061197085}, "southwest": {"lat": -25.7488866802915, "lng": -53.0548040802915}}}, "icon": "https://maps.gstatic.com/mapfiles/place_api/icons/restaurant-71.png", "id": "cfe1d6fe51287c46b6428e0212f2f5caf4476d10", "name": "Panificadora Dam\u00e1rsi", "opening_hours": {"open_now": false}, "photos": [{"height": 2336, "html_attributions": ["<a href=\"https://maps.google.com/maps/contrib/112823464969882150235\">Ricardo MELO Araujo</a>"], "photo_reference": "CmRaAAAAx2T8GLmELyt35aiieo1_pNK4j7AWCt_2fjbK9IwyAOn71_nJFGKuoelPLWcCVFyFt1EP0hyPwuFa_7h71hCrgZybjnvR_QMKNB60wiObJJvwJhq9KDkPBNMoL87mObRIEhDYkwgFe5azPpDoDpM-ChEoGhQzflNUdw6a2p0TzCfVmH590FW7Qg", "width": 4160}], "place_id": "ChIJzz8JeI5H8JQReo88pcG0e7I", "plus_code": {"compound_code": "7W2W+XJ Centro, Dois Vizinhos - State of Paran\u00e1, Brazil", "global_code": "58687W2W+XJ"}, "rating": 4.4, "reference": "ChIJzz8JeI5H8JQReo88pcG0e7I", "scope": "GOOGLE", "types": ["bakery", "food", "point_of_interest", "store", "establishment"], "user_ratings_total": 120, "vicinity": "Rua Vinte e Oito de Novembro, 242, Dois Vizinhos"}, {"business_status": "OPERATIONAL", "geometry": {"location": {"lat": -25.7440134, "lng": -53.0549358}, "viewport": {"northeast": {"lat": -25.74270041970849, "lng": -53.0535777697085}, "southwest": {"lat": -25.7453983802915, "lng": -53.0562757302915}}}, "icon": "https://maps.gstatic.com/mapfiles/place_api/icons/restaurant-71.png", "id": "3d24ac415f8406586207e90fd4ee737b95d6c938", "name": "Panificadora E Confeitaria Ponto Do Caf\u00e9", "place_id": "ChIJn85Zp41H8JQR4AWpN4_coV8", "plus_code": {"compound_code": "7W4W+92 Centro, Dois Vizinhos - State of Paran\u00e1, Brazil", "global_code": "58687W4W+92"}, "reference": "ChIJn85Zp41H8JQR4AWpN4_coV8", "scope": "GOOGLE", "types": ["bakery", "food", "point_of_interest", "store", "establishment"], "vicinity": "Rua Venceslau Braz, 404, Dois Vizinhos"}, {"business_status": "OPERATIONAL", "geometry": {"location": {"lat": -25.742531, "lng": -53.058364}, "viewport": {"northeast": {"lat": -25.7411340697085, "lng": -53.0570237697085}, "southwest": {"lat": -25.7438320302915, "lng": -53.0597217302915}}}, "icon": "https://maps.gstatic.com/mapfiles/place_api/icons/restaurant-71.png", "id": "46e09c582836fe4293e0689961059b9dcc75bc65", "name": "Panificadora atelie do sabor - doces e salgados", "opening_hours": {"open_now": false}, "photos": [{"height": 3096, "html_attributions": ["<a href=\"https://maps.google.com/maps/contrib/117177293074135597764\">jose junior</a>"], "photo_reference": "CmRaAAAAjlpyVz5IQfaakxLfygypbxjvxSFw0uO9k59XMYmG8HE6hK4ysg0WT_rHtqTQHEBS6KSMwcPhPltdmqZMWlZ5BO0THMWriDuYTVx9x21usoAaBMF541bVqN9nrvivm_BfEhAMiSy-G7DirLImOJdV0CJ2GhTf1rJaShEHXI2x8-jXUnRH8zdRuQ", "width": 3096}], "place_id": "ChIJK8HcLO1H8JQR5xWZYT9i6Zg", "plus_code": {"compound_code": "7W4R+XM Centro, Dois Vizinhos - State of Paran\u00e1, Brazil", "global_code": "58687W4R+XM"}, "rating": 4.5, "reference": "ChIJK8HcLO1H8JQR5xWZYT9i6Zg", "scope": "GOOGLE", "types": ["bakery", "cafe", "food", "point_of_interest", "store", "establishment"], "user_ratings_total": 13, "vicinity": "Rua do Com\u00e9rcio, 715 - Centro, Dois Vizinhos"}, {"business_status": "OPERATIONAL", "geometry": {"location": {"lat": -25.74403389999999, "lng": -53.06334289999999}, "viewport": {"northeast": {"lat": -25.74268946970849, "lng": -53.06201911970849}, "southwest": {"lat": -25.7453874302915, "lng": -53.06471708029149}}}, "icon": "https://maps.gstatic.com/mapfiles/place_api/icons/shopping-71.png", "id": "0b398c4576d9a2d8854d01b5b1b14688ae8a87e2", "name": "Confeitaria Rainha", "opening_hours": {"open_now": false}, "photos": [{"height": 2560, "html_attributions": ["<a href=\"https://maps.google.com/maps/contrib/100051164062049993156\">Confeitaria Rainha</a>"], "photo_reference": "CmRaAAAAKIGkOo0Lim3oMcOGrKT2vxvpf_mX9bTqfV0MQ5ca7D_vvVvDtFliXKU-Mu4UFZ9Hl6bXeqe17pRoZcCesbauQZrNZ8Y6BkO266gRlEC5rGGVPtExDrrzY7WsSGaSrTtYEhDOfCkZ2w5UGEDYI71le2vuGhTZNXORmVfHu1U0MnUCCtnusgdj5Q", "width": 1920}], "place_id": "ChIJQVwzhu1H8JQRqqzZuqkyU6I", "plus_code": {"compound_code": "7W4P+9M S\u00e3o Francisco de Assis, Dois Vizinhos - State of Paran\u00e1, Brazil", "global_code": "58687W4P+9M"}, "rating": 4.2, "reference": "ChIJQVwzhu1H8JQRqqzZuqkyU6I", "scope": "GOOGLE", "types": ["bakery", "food", "point_of_interest", "store", "establishment"], "user_ratings_total": 14, "vicinity": "Rua Marechal Mascarenhas de Morais - S\u00e3o Francisco de Assis, Dois Vizinhos"}, {"business_status": "OPERATIONAL", "geometry": {"location": {"lat": -25.7540744, "lng": -53.0482388}, "viewport": {"northeast": {"lat": -25.7527490197085, "lng": -53.04686666970851}, "southwest": {"lat": -25.7554469802915, "lng": -53.0495646302915}}}, "icon": "https://maps.gstatic.com/mapfiles/place_api/icons/restaurant-71.png", "id": "6c76c99ac1a30289848d1750f31ff84327a1c468", "name": "Caseiros da Tete", "place_id": "ChIJ5UFVL4dH8JQRPy-WgZaSdKI", "plus_code": {"compound_code": "6XW2+9P S\u00e3o Francisco Xavier, Dois Vizinhos - State of Paran\u00e1, Brazil", "global_code": "58686XW2+9P"}, "reference": "ChIJ5UFVL4dH8JQRPy-WgZaSdKI", "scope": "GOOGLE", "types": ["bakery", "food", "point_of_interest", "store", "establishment"], "vicinity": "Rua Eug\u00eanio Morello, 146 - S\u00e3o Francisco Xavier, Dois Vizinhos"}, {"business_status": "OPERATIONAL", "geometry": {"location": {"lat": -25.7572539, "lng": -53.0567669}, "viewport": {"northeast": {"lat": -25.7559167697085, "lng": -53.0554786697085}, "southwest": {"lat": -25.7586147302915, "lng": -53.0581766302915}}}, "icon": "https://maps.gstatic.com/mapfiles/place_api/icons/restaurant-71.png", "id": "b7041fb9124bf2fa8eee24187e3382f8b3d80042", "name": "Panificadora e Confeitaria Estrela Dalva", "opening_hours": {"open_now": false}, "place_id": "ChIJhRAnUptH8JQRoHhGPqDh4oY", "plus_code": {"compound_code": "6WVV+37 Centro Sul, Dois Vizinhos - State of Paran\u00e1, Brazil", "global_code": "58686WVV+37"}, "rating": 5, "reference": "ChIJhRAnUptH8JQRoHhGPqDh4oY", "scope": "GOOGLE", "types": ["bakery", "food", "point_of_interest", "store", "establishment"], "user_ratings_total": 2, "vicinity": "Rua Salgado Filho, 727, Dois Vizinhos"}, {"business_status": "OPERATIONAL", "geometry": {"location": {"lat": -25.7590159, "lng": -53.0589384}, "viewport": {"northeast": {"lat": -25.75765886970849, "lng": -53.0575427697085}, "southwest": {"lat": -25.7603568302915, "lng": -53.0602407302915}}}, "icon": "https://maps.gstatic.com/mapfiles/place_api/icons/restaurant-71.png", "id": "e2318e61d911cc4b3065660085ecc1555fd80b98", "name": "Cheiro Verde Panificadora e Restaurante", "opening_hours": {"open_now": false}, "photos": [{"height": 720, "html_attributions": ["<a href=\"https://maps.google.com/maps/contrib/107518877880987725037\">Marketing Sigma3</a>"], "photo_reference": "CmRaAAAAi838DG2obNfU6uH0dN5pnEcCURYKSktbJyNEHQxQDuIje9f07zo3ypzJnIrKUr3oiblprcUzh7WUcXlzA3awaB1yL3HexE3-tCOYa1f3fmlsrLPbeJPKjIWvzFWh7HWNEhAk1SAcI2ILazwJvH9LFrclGhSH-nrG1QpE04cVpFholZc1Pc6ytg", "width": 1280}], "place_id": "ChIJZegCaJpH8JQRXiKDGbYyeI0", "plus_code": {"compound_code": "6WRR+9C Centro Sul, Dois Vizinhos - State of Paran\u00e1, Brazil", "global_code": "58686WRR+9C"}, "rating": 4.4, "reference": "ChIJZegCaJpH8JQRXiKDGbYyeI0", "scope": "GOOGLE", "types": ["bakery", "restaurant", "food", "point_of_interest", "store", "establishment"], "user_ratings_total": 287, "vicinity": "Avenida Presidente Kenedy, 854 - Centro Sul, Dois Vizinhos"}, {"business_status": "OPERATIONAL", "geometry": {"location": {"lat": -25.7475699, "lng": -53.0696636}, "viewport": {"northeast": {"lat": -25.7463060697085, "lng": -53.0683305197085}, "southwest": {"lat": -25.7490040302915, "lng": -53.0710284802915}}}, "icon": "https://maps.gstatic.com/mapfiles/place_api/icons/restaurant-71.png", "id": "40d7216bee3ff5d926b8deb6c90e9d911b979995", "name": "Bolosdawilma", "photos": [{"height": 630, "html_attributions": ["<a href=\"https://maps.google.com/maps/contrib/113799453420946482697\">Bolosdawilma</a>"], "photo_reference": "CmRaAAAApn-v25Sx12A3qN48SLRa7vqZolKxGLiDIr4_EtjqLpO0WJEleOzPQmv_wtVim4sCf0My7gBEZTuErTZnG8Ze98v4VM7GJLGyewp4RYFRfGQszlQya4Z_S2pbIRY1VbpnEhBIikrxC3G2rgvK_5QFOXzfGhSjv_fBw79E-rWkF8IHHDXxiom0dg", "width": 1120}], "place_id": "ChIJ67vkdu9H8JQRDAteOJ51gS8", "plus_code": {"compound_code": "7W2J+X4 Vitoria, Dois Vizinhos - State of Paran\u00e1, Brazil", "global_code": "58687W2J+X4"}, "reference": "ChIJ67vkdu9H8JQRDAteOJ51gS8", "scope": "GOOGLE", "types": ["bakery", "food", "point_of_interest", "store", "establishment"], "vicinity": "Rua Prudente de Morais - Vitoria, Dois Vizinhos"}, {"business_status": "OPERATIONAL", "geometry": {"location": {"lat": -25.7456425, "lng": -53.0564738}, "viewport": {"northeast": {"lat": -25.7442756197085, "lng": -53.0550316697085}, "southwest": {"lat": -25.74697358029151, "lng": -53.0577296302915}}}, "icon": "https://maps.gstatic.com/mapfiles/place_api/icons/bank_dollar-71.png", "id": "8198714580761ca6f9dd1a468391bb0f33dfca12", "name": "Banco do Brasil", "opening_hours": {"open_now": true}, "place_id": "ChIJIV-s5JVH8JQRTkP1BWyutmY", "plus_code": {"compound_code": "7W3V+PC Centro, Dois Vizinhos - State of Paran\u00e1, Brazil", "global_code": "58687W3V+PC"}, "rating": 3.3, "reference": "ChIJIV-s5JVH8JQRTkP1BWyutmY", "scope": "GOOGLE", "types": ["bank", "atm", "finance", "point_of_interest", "establishment"], "user_ratings_total": 17, "vicinity": "Rua Jo\u00e3o Dalpasquale, 277 - Centro, Dois Vizinhos"}, {"business_status": "OPERATIONAL", "geometry": {"location": {"lat": -25.7461615, "lng": -53.0560298}, "viewport": {"northeast": {"lat": -25.7448241197085, "lng": -53.0547413697085}, "southwest": {"lat": -25.74752208029151, "lng": -53.0574393302915}}}, "icon": "https://maps.gstatic.com/mapfiles/place_api/icons/bank_dollar-71.png", "id": "b8e0955875c0668f0c62a23a9f63db8d783bae7b", "name": "Ag\u00eancia Ita\u00fa", "opening_hours": {"open_now": false}, "place_id": "ChIJAaqC8I1H8JQRnBmWovBZBLE", "plus_code": {"compound_code": "7W3V+GH Centro, Dois Vizinhos - State of Paran\u00e1, Brazil", "global_code": "58687W3V+GH"}, "rating": 4.3, "reference": "ChIJAaqC8I1H8JQRnBmWovBZBLE", "scope": "GOOGLE", "types": ["bank", "atm", "finance", "point_of_interest", "establishment"], "user_ratings_total": 3, "vicinity": "Rua Jo\u00e3o Dalpasquale, 240 - Centro, Dois Vizinhos"}, {"business_status": "OPERATIONAL", "geometry": {"location": {"lat": -25.7439423, "lng": -53.05581240000001}, "viewport": {"northeast": {"lat": -25.7425800197085, "lng": -53.0543961697085}, "southwest": {"lat": -25.7452779802915, "lng": -53.0570941302915}}}, "icon": "https://maps.gstatic.com/mapfiles/place_api/icons/bank_dollar-71.png", "id": "5697a437d5290ff43bc133ac206b6dedc6b9d3ae", "name": "Caixa Econ\u00f4mica Federal", "opening_hours": {"open_now": true}, "place_id": "ChIJTQ5AcY1H8JQRpVkr01lpp-A", "plus_code": {"compound_code": "7W4V+CM Centro Norte, Dois Vizinhos - State of Paran\u00e1, Brazil", "global_code": "58687W4V+CM"}, "rating": 4.3, "reference": "ChIJTQ5AcY1H8JQRpVkr01lpp-A", "scope": "GOOGLE", "types": ["bank", "atm", "finance", "point_of_interest", "establishment"], "user_ratings_total": 10, "vicinity": "Rua Sete de Setembro, 219, Dois Vizinhos"}, {"business_status": "OPERATIONAL", "geometry": {"location": {"lat": -25.7464475, "lng": -53.0562664}, "viewport": {"northeast": {"lat": -25.7450822197085, "lng": -53.0548324697085}, "southwest": {"lat": -25.7477801802915, "lng": -53.0575304302915}}}, "icon": "https://maps.gstatic.com/mapfiles/place_api/icons/bank_dollar-71.png", "id": "61f69b3d71d5d8cbe4c4e4a6cfa7f9656802eefb", "name": "Bradesco Dia&Noite", "opening_hours": {"open_now": true}, "place_id": "ChIJIV-s5JVH8JQRHrkVctgJ6-0", "plus_code": {"compound_code": "7W3V+CF Centro, Dois Vizinhos - State of Paran\u00e1, Brazil", "global_code": "58687W3V+CF"}, "rating": 4, "reference": "ChIJIV-s5JVH8JQRHrkVctgJ6-0", "scope": "GOOGLE", "types": ["bank", "atm", "finance", "point_of_interest", "establishment"], "user_ratings_total": 9, "vicinity": "Rua Jo\u00e3o Dalpasquale, 191 - Centro, Dois Vizinhos"}, {"business_status": "OPERATIONAL", "geometry": {"location": {"lat": -25.7507251, "lng": -53.0582104}, "viewport": {"northeast": {"lat": -25.7493539197085, "lng": -53.0568666697085}, "southwest": {"lat": -25.7520518802915, "lng": -53.0595646302915}}}, "icon": "https://maps.gstatic.com/mapfiles/place_api/icons/generic_business-71.png", "id": "67f38be85ccc9e185a6038c814b8eea3ce0edd1f", "name": "CredF\u00e1cil", "opening_hours": {"open_now": false}, "photos": [{"height": 960, "html_attributions": ["<a href=\"https://maps.google.com/maps/contrib/116277715343285704177\">CredF\u00e1cil</a>"], "photo_reference": "CmRaAAAAvKSkFS_kZ8aTJmxczAdQx2_kR3b0zNeV4lF84zPiXN2_7_bEYJUJ-9Eo12M1KdcIHpvL7RSVhLZGo1Xs-SJ9S8oWjwhqZX5vBndN10bsy-LlGwy3e5_wNTNefAyzgBwFEhDWqnB3xvuNWUlR5hQibVu_GhTYZykc455l7TR_0QjiLIQI7bqOBg", "width": 1280}], "place_id": "ChIJHSbjegFH8JQRlhi1fzvV2Hs", "plus_code": {"compound_code": "6WXR+PP Centro Sul, Dois Vizinhos - State of Paran\u00e1, Brazil", "global_code": "58686WXR+PP"}, "rating": 5, "reference": "ChIJHSbjegFH8JQRlhi1fzvV2Hs", "scope": "GOOGLE", "types": ["bank", "finance", "insurance_agency", "point_of_interest", "establishment"], "user_ratings_total": 1, "vicinity": "Avenida Rio Grande do Sul, 605 - Sala 02 - Centro Sul, Dois Vizinhos"}, {"business_status": "OPERATIONAL", "geometry": {"location": {"lat": -25.7580049, "lng": -53.0580399}, "viewport": {"northeast": {"lat": -25.7566416697085, "lng": -53.05669441970851}, "southwest": {"lat": -25.7593396302915, "lng": -53.0593923802915}}}, "icon": "https://maps.gstatic.com/mapfiles/place_api/icons/generic_business-71.png", "id": "6036f024ecddc084e57766da6e2ab0e780d4ef94", "name": "CREDICAIXA - Correspondente CaixaAQUI", "opening_hours": {"open_now": false}, "photos": [{"height": 612, "html_attributions": ["<a href=\"https://maps.google.com/maps/contrib/107181963737641883224\">CREDICAIXA - Correspondente CaixaAQUI</a>"], "photo_reference": "CmRaAAAAt1enLjVUUoZEK_0W5xftlOV0EvEC8GiggyvqyksXR03dgvb54K3WmvP7IUEkfkl_eYja0XzZQR8jhBwxcpmtgAqk4AF5Oqa3naA80sU-zAGiBf7envM6BgluZmJOOaFyEhC-DLAHdmMl02xpFL_XwD54GhT-fBCcRluLdbvBF7MQ6WXnmcmCMw", "width": 816}], "place_id": "ChIJuTKRmJxH8JQRlDxHnXMY3LM", "plus_code": {"compound_code": "6WRR+QQ Centro Sul, Dois Vizinhos - State of Paran\u00e1, Brazil", "global_code": "58686WRR+QQ"}, "rating": 5, "reference": "ChIJuTKRmJxH8JQRlDxHnXMY3LM", "scope": "GOOGLE", "types": ["bank", "finance", "local_government_office", "point_of_interest", "establishment"], "user_ratings_total": 1, "vicinity": "Avenida M\u00e9xico, 1010 - Centro Sul, Dois Vizinhos"}, {"business_status": "OPERATIONAL", "geometry": {"location": {"lat": -25.7454541, "lng": -53.0554223}, "viewport": {"northeast": {"lat": -25.7440910697085, "lng": -53.0540185697085}, "southwest": {"lat": -25.7467890302915, "lng": -53.0567165302915}}}, "icon": "https://maps.gstatic.com/mapfiles/place_api/icons/bar-71.png", "id": "9e1b4a45a03b02144ed4c6ceffd3a9bc1572c9db", "name": "Bier Choperia Hauss", "opening_hours": {"open_now": false}, "photos": [{"height": 3000, "html_attributions": ["<a href=\"https://maps.google.com/maps/contrib/115999256408839524365\">Julie Menegatti</a>"], "photo_reference": "CmRaAAAAsYhOVeJBzcT6uU7eiRJvt67Vww95D3ue8vyqgJrfJrsLF7VDilzJv03tzfxYCDiNhCLKgpHlDHQjLb7ChPcntaMA3xdi9P7naIMgHSIJLACVAymkDSyov2cvU3KF31LyEhCb_8AY0svLVvKJhlDTZPj5GhRHLSQ2LhaueMge9hrxY8y52g89lg", "width": 4000}], "place_id": "ChIJiUI76o1H8JQRXjQjRaCI9-o", "plus_code": {"compound_code": "7W3V+RR Centro, Dois Vizinhos - State of Paran\u00e1, Brazil", "global_code": "58687W3V+RR"}, "price_level": 2, "rating": 4.3, "reference": "ChIJiUI76o1H8JQRXjQjRaCI9-o", "scope": "GOOGLE", "types": ["bar", "point_of_interest", "establishment"], "user_ratings_total": 595, "vicinity": "Rua Sete de Setembro, 45, Dois Vizinhos"}, {"business_status": "OPERATIONAL", "geometry": {"location": {"lat": -25.7427704, "lng": -53.0547125}, "viewport": {"northeast": {"lat": -25.7414373197085, "lng": -53.05345061970851}, "southwest": {"lat": -25.7441352802915, "lng": -53.05614858029151}}}, "icon": "https://maps.gstatic.com/mapfiles/place_api/icons/bar-71.png", "id": "07eeaba3a3463da3a5bac99d13da21a1c7493818", "name": "Officina Bar", "opening_hours": {"open_now": false}, "photos": [{"height": 3456, "html_attributions": ["<a href=\"https://maps.google.com/maps/contrib/113415108794606638625\">Jo\u00e3o Luiz Vieira</a>"], "photo_reference": "CmRaAAAANF1vfKYkzyBHckha1NEl9qkF8NnTkUsn5hg1lz7mtQbVCz7pfBzWrUJxVYj-UHVQsO2anS1-E235U7KvyPOFAGTvDvzFRcEYCbS8AuJkxtuKbQq_lRzo0qlsIpPbyFBFEhDODKViXe3QxCZIu6vPkgl1GhTKOOstCig0pByCV1oy90G4iZotBw", "width": 4608}], "place_id": "ChIJkcXyc41H8JQRY7lPgWLxz5s", "plus_code": {"compound_code": "7W4W+V4 Centro Norte, Dois Vizinhos - State of Paran\u00e1, Brazil", "global_code": "58687W4W+V4"}, "price_level": 2, "rating": 4.5, "reference": "ChIJkcXyc41H8JQRY7lPgWLxz5s", "scope": "GOOGLE", "types": ["bar", "point_of_interest", "establishment"], "user_ratings_total": 348, "vicinity": "Rua Castro Alves, 460 - Centro Norte, Dois Vizinhos"}, {"business_status": "OPERATIONAL", "geometry": {"location": {"lat": -25.7466188, "lng": -53.05471619999999}, "viewport": {"northeast": {"lat": -25.7452490697085, "lng": -53.0533722697085}, "southwest": {"lat": -25.7479470302915, "lng": -53.0560702302915}}}, "icon": "https://maps.gstatic.com/mapfiles/place_api/icons/restaurant-71.png", "id": "4095b57124ab025e9e661aebc0b95db020cc0c64", "name": "Doutor Chopp", "photos": [{"height": 640, "html_attributions": ["<a href=\"https://maps.google.com/maps/contrib/112930237802486859074\">Jean Ruaro</a>"], "photo_reference": "CmRaAAAAnaS_EhgCSoRlTKfoO-2x5qfu2MbaMe06N-3oJfXisINBCrTbR8oBT6yhEv3Ej-Mx21LDd3lZCQl0AN_jDmyfNFJEXIa87uAVBGmgM5fxvKmGW-V-OfhRKd7E559k_5NEEhCNg1Rw8Ziq2-FhMq0XhBnDGhSxRpVWEL6i7IFaUFM_MscBMJDaWg", "width": 600}], "place_id": "ChIJhwite0BH8JQRnudl7uvLEHc", "plus_code": {"compound_code": "7W3W+94 Centro, Dois Vizinhos - State of Paran\u00e1, Brazil", "global_code": "58687W3W+94"}, "rating": 4.6, "reference": "ChIJhwite0BH8JQRnudl7uvLEHc", "scope": "GOOGLE", "types": ["bar", "restaurant", "food", "point_of_interest", "establishment"], "user_ratings_total": 14, "vicinity": "Rua Vereador Enedil Lima - Centro, Dois Vizinhos"}, {"business_status": "OPERATIONAL", "geometry": {"location": {"lat": -25.74667, "lng": -53.05465629999999}, "viewport": {"northeast": {"lat": -25.7452656697085, "lng": -53.0533232697085}, "southwest": {"lat": -25.7479636302915, "lng": -53.0560212302915}}}, "icon": "https://maps.gstatic.com/mapfiles/place_api/icons/restaurant-71.png", "id": "1595a611c6cba8020367dd08f0428191606e09c1", "name": "Doutor Chopp DV", "photos": [{"height": 720, "html_attributions": ["<a href=\"https://maps.google.com/maps/contrib/102043686725193782194\">J\u00e9ferson Albino</a>"], "photo_reference": "CmRaAAAAbfJXQJOMm0o8kf4VNsSaK6KBq_fzmEjXuOf4SoQ46ZoJt9Uihf0vlWG59IMRpCo5qXFaYQMyfj4GBVkG6AnIGvUeP3U71zyM9AOSjn41WBv3Pm08eYYKgtwmHf_Ina7TEhBUG6z5k_O-A6CIjkflWJRRGhRdVMXrbjhMbmqi0N-R0TrwYxeu1g", "width": 1280}], "place_id": "ChIJ9yJbTgRH8JQR0xLod4z54ZM", "plus_code": {"compound_code": "7W3W+84 Centro, Dois Vizinhos - State of Paran\u00e1, Brazil", "global_code": "58687W3W+84"}, "rating": 5, "reference": "ChIJ9yJbTgRH8JQR0xLod4z54ZM", "scope": "GOOGLE", "types": ["bar", "restaurant", "food", "point_of_interest", "establishment"], "user_ratings_total": 2, "vicinity": "Rua Vereador Enedil Lima, 17 - Centro, Dois Vizinhos"}, {"business_status": "OPERATIONAL", "geometry": {"location": {"lat": -25.7444831, "lng": -53.05837229999999}, "viewport": {"northeast": {"lat": -25.7431203197085, "lng": -53.0569437697085}, "southwest": {"lat": -25.7458182802915, "lng": -53.0596417302915}}}, "icon": "https://maps.gstatic.com/mapfiles/place_api/icons/bar-71.png", "id": "bdb73737e6b458073b4fb54146777981a640f408", "name": "Bar do Alem\u00e3o", "opening_hours": {"open_now": false}, "photos": [{"height": 445, "html_attributions": ["<a href=\"https://maps.google.com/maps/contrib/116646751256190719764\">Marcelo Bananex</a>"], "photo_reference": "CmRaAAAANcoi0iAwMzdbU9UfugXCilQCBFdXU4Y7U9EYQY8ObgYus8kBE1ibFDvcoo0HvG1MLWuz5wYnVbFhkyxgoLzLsR1YRzn0eATHMZSSj_XgekCsU5P3OZXTuQgIPGsipA15EhCdGtvCDQA0vhu-kfyKU0nCGhQvBV4ZHzYWcOR9Zz9AutA8ucgfqA", "width": 689}], "place_id": "ChIJFbT58ZJH8JQRUZThRfMqTZA", "plus_code": {"compound_code": "7W4R+6M Alto da Colina, Dois Vizinhos - State of Paran\u00e1, Brazil", "global_code": "58687W4R+6M"}, "rating": 4.4, "reference": "ChIJFbT58ZJH8JQRUZThRfMqTZA", "scope": "GOOGLE", "types": ["bar", "point_of_interest", "establishment"], "user_ratings_total": 21, "vicinity": "Rua Marechal Deodoro, 421, Dois Vizinhos"}, {"business_status": "OPERATIONAL", "geometry": {"location": {"lat": -25.7486652, "lng": -53.060909}, "viewport": {"northeast": {"lat": -25.7473384697085, "lng": -53.0596746697085}, "southwest": {"lat": -25.7500364302915, "lng": -53.0623726302915}}}, "icon": "https://maps.gstatic.com/mapfiles/place_api/icons/bar-71.png", "id": "a18e4df3e6e99682ddcb8027629e228ac70eb6b2", "name": "Emanuele Cristina", "opening_hours": {"open_now": false}, "photos": [{"height": 1153, "html_attributions": ["<a href=\"https://maps.google.com/maps/contrib/104488115102928293173\">Emanuele Cristina</a>"], "photo_reference": "CmRaAAAA-BREKvgFObIjfWhwpu-cq6zvNkwjLiIO7yqP8QQJI-oVMHf2p7LtGvL48uIM_aVX7sE7sPYM8fBfB8pQXGxHfOPR3AIuTsOfxzp_BFImIhe1c8A9MxHCMHOHfV5M4y0eEhDbYgEqF1mz1FcuMg_145x3GhSveog9WtbFEget_qEk94RWXNYTeg", "width": 2048}], "place_id": "ChIJx45ggJlH8JQRYMK7U1tgZxk", "plus_code": {"compound_code": "7W2Q+GJ Centro, Dois Vizinhos - State of Paran\u00e1, Brazil", "global_code": "58687W2Q+GJ"}, "reference": "ChIJx45ggJlH8JQRYMK7U1tgZxk", "scope": "GOOGLE", "types": ["night_club", "bar", "point_of_interest", "establishment"], "vicinity": "Rua Presidente Castelo Branco, 68 - Centro, Dois Vizinhos"}, {"business_status": "OPERATIONAL", "geometry": {"location": {"lat": -25.7509881, "lng": -53.059396}, "viewport": {"northeast": {"lat": -25.74959441970849, "lng": -53.0580585197085}, "southwest": {"lat": -25.7522923802915, "lng": -53.0607564802915}}}, "icon": "https://maps.gstatic.com/mapfiles/place_api/icons/bar-71.png", "id": "beca55139adef770b240dc776138350b23031f27", "name": "Saidera's Bar e Tabacaria", "opening_hours": {"open_now": false}, "photos": [{"height": 3024, "html_attributions": ["<a href=\"https://maps.google.com/maps/contrib/103467820587441837955\">andressa espringosky</a>"], "photo_reference": "CmRaAAAAG1duFxhUOEohoSk9c9Uz5CalLxtI_J7AAjJfLY6_bdkihq6_wfw1-RyPBRrZbFo3w2s3DHcWN60dvrGjXJdAnZ1Pp6UI4moavbUm0cXuiYB-HrBA8L0ije0yph_P5HakEhBCdqdsIXNepxF1bJFHNdm_GhTih6XsdbF8Ei8CQUeKmJ1CsWQVJw", "width": 4032}], "place_id": "ChIJNZ8Z-JBH8JQRu9PdfmUVrfk", "plus_code": {"compound_code": "6WXR+J6 Centro Sul, Dois Vizinhos - State of Paran\u00e1, Brazil", "global_code": "58686WXR+J6"}, "price_level": 2, "rating": 4.6, "reference": "ChIJNZ8Z-JBH8JQRu9PdfmUVrfk", "scope": "GOOGLE", "types": ["bar", "point_of_interest", "establishment"], "user_ratings_total": 155, "vicinity": "Avenida Rio Grande do Sul, 633-783 - Centro Sul, Dois Vizinhos"}, {"business_status": "OPERATIONAL", "geometry": {"location": {"lat": -25.7424579, "lng": -53.06009350000001}, "viewport": {"northeast": {"lat": -25.74109641970849, "lng": -53.0586737197085}, "southwest": {"lat": -25.7437943802915, "lng": -53.0613716802915}}}, "icon": "https://maps.gstatic.com/mapfiles/place_api/icons/bar-71.png", "id": "d4dc9db387cad5e43d95b4a86a2e0ae74e952120", "name": "Studio Kati Teles MakeUP", "opening_hours": {"open_now": true}, "photos": [{"height": 810, "html_attributions": ["<a href=\"https://maps.google.com/maps/contrib/108406898073512105190\">Studio Kati Teles MakeUP</a>"], "photo_reference": "CmRaAAAAPsoOh0sGPXxkZIHsuUbBrSHKAPjcaI-NSt2DOPDrgT7nO-ZUF-mkVD8LIDBe7AyuZ89pOu8d0tFJU_mCNFRe4wpdLsPWBi3k-Pd6VAxaNY79M7bnPEz0qoJ0feaiJQEiEhDF9wU0ctXjzF0CmPrpO6e3GhQjbODPD06EkXIDo1PHfEAWTCzvag", "width": 1440}], "place_id": "ChIJaRknzbRH8JQR6LUbAajKLrE", "plus_code": {"compound_code": "7W5Q+2X Centro Norte, Dois Vizinhos - State of Paran\u00e1, Brazil", "global_code": "58687W5Q+2X"}, "reference": "ChIJaRknzbRH8JQR6LUbAajKLrE", "scope": "GOOGLE", "types": ["night_club", "bar", "point_of_interest", "establishment"], "vicinity": "Rua Manoel da N\u00f3brega, 255 - Centro Norte, Dois Vizinhos"}, {"business_status": "OPERATIONAL", "geometry": {"location": {"lat": -25.7530997, "lng": -53.0605025}, "viewport": {"northeast": {"lat": -25.7517244197085, "lng": -53.0590167197085}, "southwest": {"lat": -25.7544223802915, "lng": -53.06171468029149}}}, "icon": "https://maps.gstatic.com/mapfiles/place_api/icons/bar-71.png", "id": "16597d286822ed1971e87d4ce2242a5832604494", "name": "Beer and Burger", "photos": [{"height": 2936, "html_attributions": ["<a href=\"https://maps.google.com/maps/contrib/101625609465355877184\">Douglas Jos\u00e9 Dambr\u00f3s</a>"], "photo_reference": "CmRaAAAAc5BC75X4Cl2I3AjfH4qU0wPmghljQ0rItk5fBKD7D0XJiD1IOGrTXAJXsKEWsoSogagW70R1OCOhAfqZpnjmLhd2YbISKWT9NK5bzFJ1ZzojgMh8EESRxgqOnjfRfKwiEhA_tCfjJEVZjftz929WmbVuGhSf6mX2UKt04n9XfQjCD7EkBFFv-Q", "width": 3916}], "place_id": "ChIJHX57bfRH8JQRzFTZxubV9hE", "plus_code": {"compound_code": "6WWQ+QQ Centro Sul, Dois Vizinhos - State of Paran\u00e1, Brazil", "global_code": "58686WWQ+QQ"}, "rating": 4.3, "reference": "ChIJHX57bfRH8JQRzFTZxubV9hE", "scope": "GOOGLE", "types": ["bar", "point_of_interest", "establishment"], "user_ratings_total": 86, "vicinity": "Centro Sul, Dois Vizinhos"}, {"business_status": "OPERATIONAL", "geometry": {"location": {"lat": -25.7532042, "lng": -53.0609676}, "viewport": {"northeast": {"lat": -25.7518820197085, "lng": -53.0597651697085}, "southwest": {"lat": -25.7545799802915, "lng": -53.0624631302915}}}, "icon": "https://maps.gstatic.com/mapfiles/place_api/icons/bar-71.png", "id": "a41be5bfcb2671a70c9927117a70bacd37969b17", "name": "Ap Elio", "place_id": "ChIJN62m74xH8JQRm_b1m6A8qyw", "plus_code": {"compound_code": "6WWQ+PJ Centro Sul, Dois Vizinhos - State of Paran\u00e1, Brazil", "global_code": "58686WWQ+PJ"}, "rating": 5, "reference": "ChIJN62m74xH8JQRm_b1m6A8qyw", "scope": "GOOGLE", "types": ["bar", "restaurant", "food", "point_of_interest", "establishment"], "user_ratings_total": 3, "vicinity": "Rua Tiradentes, 225 - Centro Sul, Dois Vizinhos"}, {"business_status": "OPERATIONAL", "geometry": {"location": {"lat": -25.7543537, "lng": -53.0592232}, "viewport": {"northeast": {"lat": -25.7531323697085, "lng": -53.0578432197085}, "southwest": {"lat": -25.7558303302915, "lng": -53.06054118029149}}}, "icon": "https://maps.gstatic.com/mapfiles/place_api/icons/restaurant-71.png", "id": "a302b108ef577b01105dabe5261a94b64479ef04", "name": "Jhones Bier Cervejaria - Fabrica e Bar", "opening_hours": {"open_now": false}, "photos": [{"height": 1536, "html_attributions": ["<a href=\"https://maps.google.com/maps/contrib/107606365702317583149\">Fabio Dahmer</a>"], "photo_reference": "CmRaAAAAdUw4vsZjN25wi0Oan0R52Y56i2JsgY2OcvTFWOpoxuRq9x4wKu9LL0cgly_nEnAD3stYLSCRx442DPvdf2AuZeRWXN8_1rZlBpYSFN6rlRF5PbMucGEUlnLGe35RLQXNEhBJP0O3ygR1GqHsNwEHtxgXGhQYJYhbOmiAPnxaV8Wx8A2JsHuBeg", "width": 2048}], "place_id": "ChIJ5Y8LWE5H8JQReTimTAw09g4", "plus_code": {"compound_code": "6WWR+78 Centro Sul, Dois Vizinhos - State of Paran\u00e1, Brazil", "global_code": "58686WWR+78"}, "rating": 4.6, "reference": "ChIJ5Y8LWE5H8JQReTimTAw09g4", "scope": "GOOGLE", "types": ["bar", "restaurant", "food", "point_of_interest", "establishment"], "user_ratings_total": 39, "vicinity": "Rua Amazonas, 356, Dois Vizinhos"}, {"business_status": "OPERATIONAL", "geometry": {"location": {"lat": -25.74089399999999, "lng": -53.0619858}, "viewport": {"northeast": {"lat": -25.73961041970849, "lng": -53.0606683197085}, "southwest": {"lat": -25.7423083802915, "lng": -53.0633662802915}}}, "icon": "https://maps.gstatic.com/mapfiles/place_api/icons/generic_business-71.png", "id": "6389baa5063521bba5cd275baf83b0a4652da7af", "name": "Raquel Breier Makeup e Hair", "opening_hours": {"open_now": false}, "photos": [{"height": 608, "html_attributions": ["<a href=\"https://maps.google.com/maps/contrib/105878793806434904568\">Raquel Breier Makeup e Hair</a>"], "photo_reference": "CmRaAAAABfwS2xzRtUpc4WXktbucc8De3jisEu6q5kze7hvd5vcvsepA3aDMou0u7CIVj58Y8BMvCH9qBiC_vCLvvcOmYG4YmJjll404ZVUG6qZfJQ3F_feJ5C_DTSniLvkfEySpEhDSyqlryb8HOS-_XT6R4b-rGhQiKV1hkYiFj2BN9v-7lJj0JdvmKA", "width": 1080}], "place_id": "ChIJaQTHy8xH8JQROSFngB4cS1E", "plus_code": {"compound_code": "7W5Q+J6 Centro Norte, Dois Vizinhos - State of Paran\u00e1, Brazil", "global_code": "58687W5Q+J6"}, "rating": 5, "reference": "ChIJaQTHy8xH8JQROSFngB4cS1E", "scope": "GOOGLE", "types": ["beauty_salon", "night_club", "bar", "point_of_interest", "establishment"], "user_ratings_total": 1, "vicinity": "Rua Ipiranga, n\u00famero 360 - Centro Norte, Dois Vizinhos"}, {"business_status": "OPERATIONAL", "geometry": {"location": {"lat": -25.752684, "lng": -53.0634957}, "viewport": {"northeast": {"lat": -25.7513253197085, "lng": -53.0620932697085}, "southwest": {"lat": -25.7540232802915, "lng": -53.0647912302915}}}, "icon": "https://maps.gstatic.com/mapfiles/place_api/icons/bar-71.png", "id": "ea9272b782ae39062bb0456bc0dcab206b51ccc3", "name": "Bar do Ivo", "photos": [{"height": 2336, "html_attributions": ["<a href=\"https://maps.google.com/maps/contrib/109605590334128928184\">Izolete Vargas</a>"], "photo_reference": "CmRaAAAAXIs9aIZpoHSZGlhehbyw8EadzELi99Lfvs1gHSf4N4pK_i152bkXqPrORPso8kyiJqjHNOCNZUFXfXh24gNfTCHx4E9zi5EzaKI1I_NnPSOd-o8uf3J7wbwnr1flIVPrEhCEdgnysTZ0e5LyOQE5TDhHGhQbOBkavoRFICPyLPxqw0KbBMRPTA", "width": 4160}], "place_id": "ChIJYSepFZdH8JQRcYl4t3cEz8o", "plus_code": {"compound_code": "6WWP+WJ Sagrada Fam\u00edlia, Dois Vizinhos - State of Paran\u00e1, Brazil", "global_code": "58686WWP+WJ"}, "rating": 4.2, "reference": "ChIJYSepFZdH8JQRcYl4t3cEz8o", "scope": "GOOGLE", "types": ["bar", "point_of_interest", "establishment"], "user_ratings_total": 33, "vicinity": "Sagrada Fam\u00edlia, Dois Vizinhos"}, {"business_status": "OPERATIONAL", "geometry": {"location": {"lat": -25.7458454, "lng": -53.0540275}, "viewport": {"northeast": {"lat": -25.7445256197085, "lng": -53.0527311197085}, "southwest": {"lat": -25.7472235802915, "lng": -53.0554290802915}}}, "icon": "https://maps.gstatic.com/mapfiles/place_api/icons/generic_business-71.png", "id": "20072e08093c8600bcb42e1a7880d8d2f8a8ae18", "name": "ARRAZUS", "opening_hours": {"open_now": false}, "photos": [{"height": 1024, "html_attributions": ["<a href=\"https://maps.google.com/maps/contrib/109860476551872799356\">ARRAZUS</a>"], "photo_reference": "CmRaAAAAWfjHrmffy9CZdSZIw90Q9IiGe99d6Hp39SKV6oTHXhNn0aU8UNXiaaqgOaVS1iPsSEda8jQlSQPnkWM0E-CgKRYfKvSLch1bs7m1GDkCfcvEKkzLed2XeUCa8yXlpAscEhBJGdAUm0mwBGmW4oscfup5GhTydY6N3ZYVgtwgqLY68TEoLWEbtA", "width": 1024}], "place_id": "ChIJ-16ano9H8JQRMnNa5C9m31w", "plus_code": {"compound_code": "7W3W+M9 Centro, Dois Vizinhos - State of Paran\u00e1, Brazil", "global_code": "58687W3W+M9"}, "rating": 5, "reference": "ChIJ-16ano9H8JQRMnNa5C9m31w", "scope": "GOOGLE", "types": ["beauty_salon", "point_of_interest", "establishment"], "user_ratings_total": 37, "vicinity": "Ed Por Do Sol - Rua Castro Alves, 134 - Centro, Dois Vizinhos"}, {"business_status": "OPERATIONAL", "geometry": {"location": {"lat": -25.7522076, "lng": -53.0636557}, "viewport": {"northeast": {"lat": -25.7508442697085, "lng": -53.0622274197085}, "southwest": {"lat": -25.7535422302915, "lng": -53.0649253802915}}}, "icon": "https://maps.gstatic.com/mapfiles/place_api/icons/generic_business-71.png", "id": "f49c5749d1e7abd73922931f68f9a777832ccb0c", "name": "Sal\u00e3o Sempre Bella - Dete", "photos": [{"height": 480, "html_attributions": ["<a href=\"https://maps.google.com/maps/contrib/106624941527479328239\">Sal\u00e3o Sempre Bella - Dete</a>"], "photo_reference": "CmRaAAAATkw-0cjUYTU7BtCKSOp3hwZDGDwY9gaGqU6sGz9_Pg-3ewHpw9sxbs8ZpgQfKcBMo-5YBMXHXq-S9iDvLGUbxvpqulAVcm_TOYpc5UXzBXRp0cQhN675Q1XCwX9HbzujEhDiTVb65peK-oLHsWf0FK3NGhSdPIZg1RezlQKIoF_myjF3TgDX1Q", "width": 720}], "place_id": "ChIJK0WtGZdH8JQRNrCJWLhGGms", "plus_code": {"compound_code": "6WXP+4G Sagrada Fam\u00edlia, Dois Vizinhos - State of Paran\u00e1, Brazil", "global_code": "58686WXP+4G"}, "rating": 4.9, "reference": "ChIJK0WtGZdH8JQRNrCJWLhGGms", "scope": "GOOGLE", "types": ["beauty_salon", "point_of_interest", "establishment"], "user_ratings_total": 28, "vicinity": "Rua Clevel\u00e2ndia, 232 - Sagrada Fam\u00edlia, Dois Vizinhos"}, {"business_status": "OPERATIONAL", "geometry": {"location": {"lat": -25.7456176, "lng": -53.0560987}, "viewport": {"northeast": {"lat": -25.7442322697085, "lng": -53.0547309697085}, "southwest": {"lat": -25.7469302302915, "lng": -53.0574289302915}}}, "icon": "https://maps.gstatic.com/mapfiles/place_api/icons/generic_business-71.png", "id": "82adf6b139553f6c9522eeba863c825a7ea2c360", "name": "FABELE (Sal\u00e3o da Fatinha)", "place_id": "ChIJWXeP6sFH8JQRXtBjspppJJg", "plus_code": {"compound_code": "7W3V+QH S\u00e3o Francisco de Assis, Dois Vizinhos - State of Paran\u00e1, Brazil", "global_code": "58687W3V+QH"}, "reference": "ChIJWXeP6sFH8JQRXtBjspppJJg", "scope": "GOOGLE", "types": ["beauty_salon", "point_of_interest", "establishment"], "vicinity": "Rua Padre Anchieta, 1075 - S\u00e3o Francisco de Assis, Dois Vizinhos"}, {"business_status": "OPERATIONAL", "geometry": {"location": {"lat": -25.74392, "lng": -53.0569309}, "viewport": {"northeast": {"lat": -25.7425478697085, "lng": -53.0554802697085}, "southwest": {"lat": -25.7452458302915, "lng": -53.0581782302915}}}, "icon": "https://maps.gstatic.com/mapfiles/place_api/icons/generic_business-71.png", "id": "07335202d5d6efbcaca49af9f5e38fbedb71bc0a", "name": "Mulher + Bonita - Cl\u00ednicas Integradas - Emagrecimento Saud\u00e1vel - Est\u00e9tica e Depila\u00e7\u00e3o", "opening_hours": {"open_now": false}, "photos": [{"height": 4160, "html_attributions": ["<a href=\"https://maps.google.com/maps/contrib/104804056879797624401\">Mulher + Bonita - Cl\u00ednicas Integradas - Emagrecimento Saud\u00e1vel - Est\u00e9tica e Depila\u00e7\u00e3o</a>"], "photo_reference": "CmRaAAAAKZLQanaBJKbluP_127HClSmdHTVGZNjVgAsWJBN1GIIYvviV5v7TmTazK7AqznhyTqPrx21rpfjSuoXTC8hZsNrffs3d9kga5VuXmlSivl8mRE7h_EuEhTxR41eJUn35EhBDNBKvfjzfjKqhAeOVu2ldGhTzTQcpeDLV93nO3BTVADAubmoCug", "width": 2340}], "place_id": "ChIJHQywnJJH8JQRpb0h5YaiFh0", "plus_code": {"compound_code": "7W4V+C6 Centro Norte, Dois Vizinhos - State of Paran\u00e1, Brazil", "global_code": "58687W4V+C6"}, "rating": 4.6, "reference": "ChIJHQywnJJH8JQRpb0h5YaiFh0", "scope": "GOOGLE", "types": ["beauty_salon", "hair_care", "health", "point_of_interest", "establishment"], "user_ratings_total": 28, "vicinity": "Rua Jo\u00e3o Dalpasquale, 479 - Sala 12 - Centro Norte, Dois Vizinhos"}, {"business_status": "OPERATIONAL", "geometry": {"location": {"lat": -25.7504312, "lng": -53.056645}, "viewport": {"northeast": {"lat": -25.7490481197085, "lng": -53.0553045197085}, "southwest": {"lat": -25.7517460802915, "lng": -53.0580024802915}}}, "icon": "https://maps.gstatic.com/mapfiles/place_api/icons/generic_business-71.png", "id": "d1fa8b0610f14f92332574a4676233d451967a63", "name": "Super Bella Sal\u00e3o Da Adri", "place_id": "ChIJ5-thJ5BH8JQRYlc61Sjyols", "plus_code": {"compound_code": "6WXV+R8 Centro Sul, Dois Vizinhos - State of Paran\u00e1, Brazil", "global_code": "58686WXV+R8"}, "reference": "ChIJ5-thJ5BH8JQRYlc61Sjyols", "scope": "GOOGLE", "types": ["beauty_salon", "point_of_interest", "establishment"], "vicinity": "Avenida Rio Grande do Sul, 449 - Centro Sul, Dois Vizinhos"}, {"business_status": "OPERATIONAL", "geometry": {"location": {"lat": -25.7425305, "lng": -53.05836420000001}, "viewport": {"northeast": {"lat": -25.7411338197085, "lng": -53.05702386970849}, "southwest": {"lat": -25.7438317802915, "lng": -53.05972183029149}}}, "icon": "https://maps.gstatic.com/mapfiles/place_api/icons/generic_business-71.png", "id": "ea3770df05b57010a64da5badd6e3b76f01bfee5", "name": "Su\u00e9len Past\u00f3rio - Design e Micropigmenta\u00e7\u00e3o de sobrancelhas", "opening_hours": {"open_now": false}, "photos": [{"height": 358, "html_attributions": ["<a href=\"https://maps.google.com/maps/contrib/113121905238603334552\">Su\u00e9len Past\u00f3rio - Design e Micropigmenta\u00e7\u00e3o de sobrancelhas</a>"], "photo_reference": "CmRaAAAASwxkwGsCZP-9lwyaTymgyzLFg3I8j0iTVsk-X02R_yeYiC5K5hltvYrBJNyf8AbecLitfXoQfi6HtE8O7MTkygfvw_tOsQCI-LQRILa3aBHDB1gFbiubKNhX9FOL0CpAEhDn4N76rCW_KdwzA4jZQFRGGhSYJmXTd_-Yr18B3ZWsJ-EQEA5elA", "width": 637}], "place_id": "ChIJJ-JQGY9H8JQRklKYlbPJKL8", "plus_code": {"compound_code": "7W4R+XM Centro, Dois Vizinhos - State of Paran\u00e1, Brazil", "global_code": "58687W4R+XM"}, "rating": 5, "reference": "ChIJJ-JQGY9H8JQRklKYlbPJKL8", "scope": "GOOGLE", "types": ["beauty_salon", "point_of_interest", "establishment"], "user_ratings_total": 29, "vicinity": "Rua do Com\u00e9rcio, 715 - Centro, Dois Vizinhos"}, {"business_status": "OPERATIONAL", "geometry": {"location": {"lat": -25.7429613, "lng": -53.05968550000001}, "viewport": {"northeast": {"lat": -25.7416334697085, "lng": -53.0584042697085}, "southwest": {"lat": -25.7443314302915, "lng": -53.0611022302915}}}, "icon": "https://maps.gstatic.com/mapfiles/place_api/icons/generic_business-71.png", "id": "e4d95e7e02684409ac575b9507cd91c085a99869", "name": "Studio Sofia Paula", "place_id": "ChIJBfYUjL1H8JQRobONtM-HP5c", "plus_code": {"compound_code": "7W4R+R4 Centro Norte, Dois Vizinhos - State of Paran\u00e1, Brazil", "global_code": "58687W4R+R4"}, "reference": "ChIJBfYUjL1H8JQRobONtM-HP5c", "scope": "GOOGLE", "types": ["beauty_salon", "point_of_interest", "establishment"], "vicinity": "Rua Jo\u00e3o pagnoncelli, 106 - Centro Norte, Dois Vizinhos"}, {"business_status": "OPERATIONAL", "geometry": {"location": {"lat": -25.7396594, "lng": -53.0567879}, "viewport": {"northeast": {"lat": -25.7383018197085, "lng": -53.0553970697085}, "southwest": {"lat": -25.7409997802915, "lng": -53.0580950302915}}}, "icon": "https://maps.gstatic.com/mapfiles/place_api/icons/generic_business-71.png", "id": "03462ab06da7a76636b7cfa4d8483287ab015198", "name": "Sal\u00e3o Da J\u00f4", "opening_hours": {"open_now": false}, "photos": [{"height": 4160, "html_attributions": ["<a href=\"https://maps.google.com/maps/contrib/103266143776331402959\">Lucas Lovisa</a>"], "photo_reference": "CmRaAAAAfVRiWObs4aICoGZgcXzuR8pfbkr-o6rHmJQQVSDKAs27QTEjBSLXjKcRiUWWkgwzCtqFNcbGWDNmk5Iq6_JiOWqbp7AeBB844OqO4ctR6xYGD37sYuGpSCVzCphCyMJcEhAUtxyfKv9y4Broe4tCFznLGhRBZfON43D4pNuA-Gk51FIN1HlNxg", "width": 2336}], "place_id": "ChIJtfANQORH8JQRKDRn9bs65sk", "plus_code": {"compound_code": "7W6V+47 Centro Norte, Dois Vizinhos - State of Paran\u00e1, Brazil", "global_code": "58687W6V+47"}, "rating": 4.8, "reference": "ChIJtfANQORH8JQRKDRn9bs65sk", "scope": "GOOGLE", "types": ["beauty_salon", "point_of_interest", "establishment"], "user_ratings_total": 5, "vicinity": "Rua Sete de Setembro, 687 - Centro Norte, Dois Vizinhos"}, {"business_status": "OPERATIONAL", "geometry": {"location": {"lat": -25.74089399999999, "lng": -53.0619858}, "viewport": {"northeast": {"lat": -25.73961041970849, "lng": -53.0606683197085}, "southwest": {"lat": -25.7423083802915, "lng": -53.0633662802915}}}, "icon": "https://maps.gstatic.com/mapfiles/place_api/icons/generic_business-71.png", "id": "6389baa5063521bba5cd275baf83b0a4652da7af", "name": "Raquel Breier Makeup e Hair", "opening_hours": {"open_now": false}, "photos": [{"height": 608, "html_attributions": ["<a href=\"https://maps.google.com/maps/contrib/105878793806434904568\">Raquel Breier Makeup e Hair</a>"], "photo_reference": "CmRaAAAAD8oKMxH3h7Vq5GyKzVFiknwxWIKumqqd8O1q8Kkng3vpYPrz7lRxgBEDHZ9It2Azt-vuurD_M6TYoPehxktUJd62I9ITMYJVWJBYKdPUsL7nKYXdWBehsPa2lG2zXnpgEhC85lIRaPKytgi98yKjpOKuGhSucggf4swq9fDy2P1G7AcSMxWJDg", "width": 1080}], "place_id": "ChIJaQTHy8xH8JQROSFngB4cS1E", "plus_code": {"compound_code": "7W5Q+J6 Centro Norte, Dois Vizinhos - State of Paran\u00e1, Brazil", "global_code": "58687W5Q+J6"}, "rating": 5, "reference": "ChIJaQTHy8xH8JQROSFngB4cS1E", "scope": "GOOGLE", "types": ["beauty_salon", "night_club", "bar", "point_of_interest", "establishment"], "user_ratings_total": 1, "vicinity": "Rua Ipiranga, n\u00famero 360 - Centro Norte, Dois Vizinhos"}, {"business_status": "OPERATIONAL", "geometry": {"location": {"lat": -25.7549165, "lng": -53.06087160000001}, "viewport": {"northeast": {"lat": -25.7535366697085, "lng": -53.0595296697085}, "southwest": {"lat": -25.7562346302915, "lng": -53.0622276302915}}}, "icon": "https://maps.gstatic.com/mapfiles/place_api/icons/generic_business-71.png", "id": "3e35899a7a1c0a951148afe8edb24c705d33c70d", "name": "Salao e Estetica Feminina", "photos": [{"height": 2560, "html_attributions": ["<a href=\"https://maps.google.com/maps/contrib/108529794320056796903\">Salete Rigon</a>"], "photo_reference": "CmRaAAAAopqbBwIA__AcqdmXKCvE_8xTC45cQZnjzb8Galo60op_NhYMNUIUWu9eHik9nn_Hq1-6RHyHZaaKzzLRyBkgc5aDlNBnSj2zcv6zkGhXhuJcNUjYDRU91lVr3jLxqI_YEhBEKwDxvqO7oK2j1uDwXZSvGhTFwOrj-wFKXp_U3FEhP8_nt9sE9w", "width": 1536}], "place_id": "ChIJF4LRPppH8JQRYuq26zBbIfw", "plus_code": {"compound_code": "6WWQ+2M Centro Sul, Dois Vizinhos - State of Paran\u00e1, Brazil", "global_code": "58686WWQ+2M"}, "rating": 5, "reference": "ChIJF4LRPppH8JQRYuq26zBbIfw", "scope": "GOOGLE", "types": ["beauty_salon", "point_of_interest", "establishment"], "user_ratings_total": 1, "vicinity": "Rua Amazonas, Dois Vizinhos"}, {"business_status": "OPERATIONAL", "geometry": {"location": {"lat": -25.73749239999999, "lng": -53.0549405}, "viewport": {"northeast": {"lat": -25.7361611697085, "lng": -53.0536862197085}, "southwest": {"lat": -25.7388591302915, "lng": -53.0563841802915}}}, "icon": "https://maps.gstatic.com/mapfiles/place_api/icons/generic_business-71.png", "id": "7d1e4a563cf8c68b56e8ce1878fa454d187cae64", "name": "Stilo Cabeleireiro", "opening_hours": {"open_now": false}, "photos": [{"height": 667, "html_attributions": ["<a href=\"https://maps.google.com/maps/contrib/108436572223568974715\">Stilo Cabeleireiro</a>"], "photo_reference": "CmRaAAAA9hLadQVqEp4P341gJApf6dJI0UjH0fgMLQ2zKC93DK7526kqEYYylLRm8PO55duuAWgbcWi2s832LTcBAn8DMZeJuq_AYbJU1-fQQA2BPq9ICm9bGsrE20bf0RYSFsz1EhD51lRO4WdcEEICZ0bnHVmbGhRfasf3VqRdezNAZwOS8qCSPuMGqA", "width": 1000}], "place_id": "ChIJCx_FUnJH8JQR_O_factGCaE", "plus_code": {"compound_code": "7W7W+22 Bairro Da Luz, Dois Vizinhos - State of Paran\u00e1, Brazil", "global_code": "58687W7W+22"}, "reference": "ChIJCx_FUnJH8JQR_O_factGCaE", "scope": "GOOGLE", "types": ["beauty_salon", "point_of_interest", "establishment"], "vicinity": "Rua Guilherme Guzzo, 1220 - Bairro Da Luz, Dois Vizinhos"}, {"business_status": "OPERATIONAL", "geometry": {"location": {"lat": -25.7582954, "lng": -53.05911809999999}, "viewport": {"northeast": {"lat": -25.7569091697085, "lng": -53.0577797697085}, "southwest": {"lat": -25.7596071302915, "lng": -53.0604777302915}}}, "icon": "https://maps.gstatic.com/mapfiles/place_api/icons/generic_business-71.png", "id": "95b4cc5820a175c2baf3ec06b0f8089e9ebc60b6", "name": "Sal\u00e3o Femina", "opening_hours": {"open_now": false}, "place_id": "ChIJS5oQu_JH8JQRoTQVJ7gif6I", "plus_code": {"compound_code": "6WRR+M9 Centro Sul, Dois Vizinhos - State of Paran\u00e1, Brazil", "global_code": "58686WRR+M9"}, "reference": "ChIJS5oQu_JH8JQRoTQVJ7gif6I", "scope": "GOOGLE", "types": ["beauty_salon", "point_of_interest", "establishment"], "vicinity": "Avenida M\u00e9xico, 861 - sala 03 - Centro Sul, Dois Vizinhos"}, {"business_status": "OPERATIONAL", "geometry": {"location": {"lat": -25.74723920000001, "lng": -53.06921329999999}, "viewport": {"northeast": {"lat": -25.7458592697085, "lng": -53.06785791970849}, "southwest": {"lat": -25.7485572302915, "lng": -53.07055588029149}}}, "icon": "https://maps.gstatic.com/mapfiles/place_api/icons/generic_business-71.png", "id": "f7bbd86e9c690a92ea4f662f5cdf76fec2b2ce20", "name": "Sal\u00e3o da Josi", "opening_hours": {"open_now": false}, "photos": [{"height": 1080, "html_attributions": ["<a href=\"https://maps.google.com/maps/contrib/114796398902726076278\">Joselene Viana</a>"], "photo_reference": "CmRaAAAAM0YLkF8g4xBmo5BccJ_KYrx748o6D-WSwMxd9tPIR6vZT-5rpWdriZIWFy_s1jrpTRp7HIzwCv79f4CF_FpOMISdOAOstZZwsANKYNOw5ms7ulbUNIokv2MmcW3v8ZzyEhBR4ZRfFT4SNjQDQZJ9H66IGhSum_40Hb1KMTgaI5OrXD_R_Fxnjg", "width": 1920}], "place_id": "ChIJSWrisK9H8JQRlO_kVQd05xk", "plus_code": {"compound_code": "7W3J+48 Vitoria, Dois Vizinhos - State of Paran\u00e1, Brazil", "global_code": "58687W3J+48"}, "rating": 5, "reference": "ChIJSWrisK9H8JQRlO_kVQd05xk", "scope": "GOOGLE", "types": ["beauty_salon", "point_of_interest", "establishment"], "user_ratings_total": 1, "vicinity": "Rua Val\u00e9rio Zamboni - Vitoria, Dois Vizinhos"}, {"business_status": "OPERATIONAL", "geometry": {"location": {"lat": -25.7412769, "lng": -53.0681998}, "viewport": {"northeast": {"lat": -25.7400001697085, "lng": -53.06683271970849}, "southwest": {"lat": -25.7426981302915, "lng": -53.06953068029149}}}, "icon": "https://maps.gstatic.com/mapfiles/place_api/icons/generic_business-71.png", "id": "137d3a4a8cfe3dd1d1af52f6911091b772598cc0", "name": "Salao Rake's Hair", "opening_hours": {"open_now": false}, "place_id": "ChIJQ8oA6cFH8JQRhbUxMmslBrg", "plus_code": {"compound_code": "7W5J+FP S\u00e3o Francisco de Assis, Dois Vizinhos - State of Paran\u00e1, Brazil", "global_code": "58687W5J+FP"}, "rating": 3, "reference": "ChIJQ8oA6cFH8JQRhbUxMmslBrg", "scope": "GOOGLE", "types": ["beauty_salon", "point_of_interest", "establishment"], "user_ratings_total": 1, "vicinity": "Rua Padre Anchieta, 1594 - S\u00e3o Francisco de Assis, Dois Vizinhos"}, {"business_status": "OPERATIONAL", "geometry": {"location": {"lat": -25.743437, "lng": -53.055542}, "viewport": {"northeast": {"lat": -25.7421119197085, "lng": -53.0543136197085}, "southwest": {"lat": -25.7448098802915, "lng": -53.05701158029149}}}, "icon": "https://maps.gstatic.com/mapfiles/place_api/icons/shopping-71.png", "id": "19bce89096bf4f2caa77d8b156d9bea866fa9675", "name": "Livraria e Papelaria L\u00e1pis de Cor", "opening_hours": {"open_now": false}, "photos": [{"height": 1200, "html_attributions": ["<a href=\"https://maps.google.com/maps/contrib/106521866983948654354\">Livraria e Papelaria L\u00e1pis de Cor</a>"], "photo_reference": "CmRaAAAAAjY6fZ0Ykq_lpfeLAeub7F51i7pxltnKFygwHQgVVGPSA0g7wr2k8bEvep0TIlQRW0fI6V14dbqp_b0zs6VG9L_D6DUMGq-86H4BrpYuJMvVnS-TRnTvL-tvdcIXm-E9EhCoj3wDjcbhBblzNnuZSlF5GhQ3lL7YdIBdA35VWdg9SbUTIOfAaw", "width": 1600}], "place_id": "ChIJBW_OoppH8JQROh9CBoC2oDg", "plus_code": {"compound_code": "7W4V+JQ Centro Norte, Dois Vizinhos - State of Paran\u00e1, Brazil", "global_code": "58687W4V+JQ"}, "rating": 4.7, "reference": "ChIJBW_OoppH8JQROh9CBoC2oDg", "scope": "GOOGLE", "types": ["book_store", "point_of_interest", "store", "establishment"], "user_ratings_total": 59, "vicinity": "Rua Sete de Setembro, 262, Dois Vizinhos"}, {"business_status": "OPERATIONAL", "geometry": {"location": {"lat": -25.7440362, "lng": -53.0565697}, "viewport": {"northeast": {"lat": -25.7426992197085, "lng": -53.0552734697085}, "southwest": {"lat": -25.7453971802915, "lng": -53.0579714302915}}}, "icon": "https://maps.gstatic.com/mapfiles/place_api/icons/shopping-71.png", "id": "ad5bcd728c1d418b892ca8129db03fa140903842", "name": "Livraria Pensar", "opening_hours": {"open_now": false}, "place_id": "ChIJEVrhgZJH8JQRaYau08vfnbo", "plus_code": {"compound_code": "7W4V+99 Centro, Dois Vizinhos - State of Paran\u00e1, Brazil", "global_code": "58687W4V+99"}, "reference": "ChIJEVrhgZJH8JQRaYau08vfnbo", "scope": "GOOGLE", "types": ["book_store", "point_of_interest", "store", "establishment"], "vicinity": "Rua Jo\u00e3o Dalpasquale, 468 - Centro, Dois Vizinhos"}, {"business_status": "OPERATIONAL", "geometry": {"location": {"lat": -25.745343, "lng": -53.0565807}, "viewport": {"northeast": {"lat": -25.74397211970849, "lng": -53.0551223197085}, "southwest": {"lat": -25.7466700802915, "lng": -53.0578202802915}}}, "icon": "https://maps.gstatic.com/mapfiles/place_api/icons/shopping-71.png", "id": "7e95ca78b0349a12ea9c0c650f9715a471343b64", "name": "Livraria e Papelaria Copo-de-Leite", "opening_hours": {"open_now": false}, "photos": [{"height": 2448, "html_attributions": ["<a href=\"https://maps.google.com/maps/contrib/100861622408988640373\">Livraria e Papelaria Copo-de-Leite</a>"], "photo_reference": "CmRaAAAAusE5eudAcbvCbbmMSvzZ9EHJls6mLp-dJFMcXXf-zDi9kXVcheBNMH31vyJ9zRTqgLKhLw4IGwm9QdG_yseuo_bYLEtTB-aVYmkwFDzPVUv1QcBTHXkvh3vs_ylz9gpVEhAkyo5YQW_OjiNR7iJoSjDEGhSxFVriBg2iMOkc1ELiVzDOsO2gyQ", "width": 3264}], "place_id": "ChIJw-iIl41H8JQRjHZ1h6Wqmco", "plus_code": {"compound_code": "7W3V+V9 Centro, Dois Vizinhos - State of Paran\u00e1, Brazil", "global_code": "58687W3V+V9"}, "rating": 4.5, "reference": "ChIJw-iIl41H8JQRjHZ1h6Wqmco", "scope": "GOOGLE", "types": ["book_store", "food", "point_of_interest", "store", "establishment"], "user_ratings_total": 6, "vicinity": "Rua Jo\u00e3o Dalpasquale, 321 - Centro, Dois Vizinhos"}, {"business_status": "OPERATIONAL", "geometry": {"location": {"lat": -25.7499048, "lng": -53.0546675}, "viewport": {"northeast": {"lat": -25.7486447197085, "lng": -53.05330926970851}, "southwest": {"lat": -25.7513426802915, "lng": -53.05600723029151}}}, "icon": "https://maps.gstatic.com/mapfiles/place_api/icons/shopping-71.png", "id": "907dd906e882f6042b184a18186a58c27f87fa9f", "name": "Livraria Divino Mestre", "opening_hours": {"open_now": false}, "place_id": "ChIJdwboII9H8JQR5iHZgmpXTq4", "plus_code": {"compound_code": "7W2W+24 Centro, Dois Vizinhos - State of Paran\u00e1, Brazil", "global_code": "58687W2W+24"}, "rating": 3.6, "reference": "ChIJdwboII9H8JQR5iHZgmpXTq4", "scope": "GOOGLE", "types": ["book_store", "point_of_interest", "store", "establishment"], "user_ratings_total": 10, "vicinity": "Avenida Rio Grande do Sul, 250 - Centro, Dois Vizinhos"}, {"business_status": "OPERATIONAL", "geometry": {"location": {"lat": -25.7500291, "lng": -53.0550785}, "viewport": {"northeast": {"lat": -25.7487246197085, "lng": -53.0537248697085}, "southwest": {"lat": -25.7514225802915, "lng": -53.0564228302915}}}, "icon": "https://maps.gstatic.com/mapfiles/place_api/icons/shopping-71.png", "id": "6f33a44b8def41adc2a0e78c0eac33adcd9684d0", "name": "Livraria Globo", "place_id": "ChIJ45PHvI9H8JQRkfglf6BVPBA", "plus_code": {"compound_code": "6WXV+XX Centro, Dois Vizinhos - State of Paran\u00e1, Brazil", "global_code": "58686WXV+XX"}, "rating": 4, "reference": "ChIJ45PHvI9H8JQRkfglf6BVPBA", "scope": "GOOGLE", "types": ["book_store", "point_of_interest", "store", "establishment"], "user_ratings_total": 1, "vicinity": "Avenida Rio Grande do Sul, 290, Dois Vizinhos"}, {"business_status": "OPERATIONAL", "geometry": {"location": {"lat": -25.7410352, "lng": -53.05646309999999}, "viewport": {"northeast": {"lat": -25.7396789197085, "lng": -53.0550726197085}, "southwest": {"lat": -25.7423768802915, "lng": -53.0577705802915}}}, "icon": "https://maps.gstatic.com/mapfiles/place_api/icons/shopping-71.png", "id": "8dfed96346465cb2980811e5a783fc91ea03c5bf", "name": "Bariloose Com\u00e9rcio de Livros", "place_id": "ChIJ43DdpvJH8JQRw_uq0rveSwo", "plus_code": {"compound_code": "7W5V+HC Centro Norte, Dois Vizinhos - State of Paran\u00e1, Brazil", "global_code": "58687W5V+HC"}, "rating": 5, "reference": "ChIJ43DdpvJH8JQRw_uq0rveSwo", "scope": "GOOGLE", "types": ["book_store", "point_of_interest", "store", "establishment"], "user_ratings_total": 4, "vicinity": "Rua Sete de Setembro, 543, Dois Vizinhos"}, {"business_status": "OPERATIONAL", "geometry": {"location": {"lat": -25.7411357, "lng": -53.0565382}, "viewport": {"northeast": {"lat": -25.73977116970849, "lng": -53.0551010697085}, "southwest": {"lat": -25.7424691302915, "lng": -53.0577990302915}}}, "icon": "https://maps.gstatic.com/mapfiles/place_api/icons/generic_business-71.png", "id": "f9c67a79616165f54bd413838d1437f4ce356c3c", "name": "Vizi Bowl", "place_id": "ChIJjyFt8uNH8JQR4hq4pJZ4ftY", "plus_code": {"compound_code": "7W5V+G9 Centro Norte, Dois Vizinhos - State of Paran\u00e1, Brazil", "global_code": "58687W5V+G9"}, "reference": "ChIJjyFt8uNH8JQR4hq4pJZ4ftY", "scope": "GOOGLE", "types": ["bowling_alley", "point_of_interest", "establishment"], "vicinity": "Rua Sete de Setembro, 537 - Centro Norte, Dois Vizinhos"}, {"business_status": "OPERATIONAL", "geometry": {"location": {"lat": -25.7495657, "lng": -53.0525933}, "viewport": {"northeast": {"lat": -25.74814766970849, "lng": -53.0513923197085}, "southwest": {"lat": -25.7508456302915, "lng": -53.0540902802915}}}, "icon": "https://maps.gstatic.com/mapfiles/place_api/icons/bus-71.png", "id": "901df79aeab321babb5f87cdfa0a3ad216917b8d", "name": "Terminal Rodoviario de Dois Vizinhos", "photos": [{"height": 270, "html_attributions": ["<a href=\"https://maps.google.com/maps/contrib/113764414385908655147\">josmar lemes</a>"], "photo_reference": "CmRaAAAAZqGuQ41UnTOtg6ANki_GiQk9_VV_JurTOD4tJKhX-k2JsYhbRP6dorEYPJOphFihLwYRK5HXz8aO8pJpb5bPgMya0jgv-9hCKqOhyJicS-79rExRro1WFhCAWV4YMRWAEhDkfM6jH3uu9_0MsGEfvfZKGhTUEdW510AFqxD2-7RqbqttQgAACQ", "width": 512}], "place_id": "ChIJj2veP49H8JQRtAaNDXvJ2zw", "plus_code": {"compound_code": "7W2W+5X Centro, Dois Vizinhos - State of Paran\u00e1, Brazil", "global_code": "58687W2W+5X"}, "reference": "ChIJj2veP49H8JQRtAaNDXvJ2zw", "scope": "GOOGLE", "types": ["bus_station", "transit_station", "point_of_interest", "establishment"], "vicinity": "Travessa Doutor Arnaldo Busato, 150 - Centro, Dois Vizinhos"}, {"business_status": "OPERATIONAL", "geometry": {"location": {"lat": -25.74356199999999, "lng": -53.0558811}, "viewport": {"northeast": {"lat": -25.74220196970849, "lng": -53.0544764197085}, "southwest": {"lat": -25.7448999302915, "lng": -53.0571743802915}}}, "icon": "https://maps.gstatic.com/mapfiles/place_api/icons/cafe-71.png", "id": "e408b164a7f48de28027e7fe5e7688da80f93bc3", "name": "Rafaelato Gelato e Caf\u00e9", "opening_hours": {"open_now": false}, "photos": [{"height": 354, "html_attributions": ["<a href=\"https://maps.google.com/maps/contrib/110131204188606837705\">Rafaelato Gelato e Caf\u00e9</a>"], "photo_reference": "CmRaAAAA-yekDfJFbaUt1951vtxkSOYtfzOT8kO5HEHS7l6bRlOClz6t9gNmyyc4ok1fEGQ3XEgptrdvxpZDoILt9JRYNWJFnRTOGePULmFP00IgbEgu5cm4v0IuDlsROmcRt_LBEhD8R-VR_BB-fw55pGmIOsHVGhReJGehmrnzRvIcL0im9NIh18JoUQ", "width": 631}], "place_id": "ChIJL6LZb41H8JQRSfJ5638DkzA", "plus_code": {"compound_code": "7W4V+HJ Centro Norte, Dois Vizinhos - State of Paran\u00e1, Brazil", "global_code": "58687W4V+HJ"}, "price_level": 3, "rating": 4.7, "reference": "ChIJL6LZb41H8JQRSfJ5638DkzA", "scope": "GOOGLE", "types": ["cafe", "food", "point_of_interest", "store", "establishment"], "user_ratings_total": 325, "vicinity": "Rua Sete de Setembro, 257 - Centro Norte, Dois Vizinhos"}, {"business_status": "OPERATIONAL", "geometry": {"location": {"lat": -25.748472, "lng": -53.052027}, "viewport": {"northeast": {"lat": -25.7470995197085, "lng": -53.0506751197085}, "southwest": {"lat": -25.74979748029151, "lng": -53.0533730802915}}}, "icon": "https://maps.gstatic.com/mapfiles/place_api/icons/cafe-71.png", "id": "106a5bc74a6be9d612b7cfefc7444c5d39052757", "name": "PANIFICADORA SABOR DE MEL", "opening_hours": {"open_now": false}, "place_id": "ChIJ11xrJo9H8JQRp4411-Fm634", "plus_code": {"compound_code": "7W2X+J5 Centro, Dois Vizinhos - State of Paran\u00e1, Brazil", "global_code": "58687W2X+J5"}, "rating": 4.7, "reference": "ChIJ11xrJo9H8JQRp4411-Fm634", "scope": "GOOGLE", "types": ["cafe", "food", "point_of_interest", "store", "establishment"], "user_ratings_total": 6, "vicinity": "AV DEDI BARRICHELLOS MONTAGNER N 68 - Centro, Dois Vizinhos"}, {"business_status": "OPERATIONAL", "geometry": {"location": {"lat": -25.7467939, "lng": -53.05547350000001}, "viewport": {"northeast": {"lat": -25.7454067197085, "lng": -53.0541337697085}, "southwest": {"lat": -25.7481046802915, "lng": -53.0568317302915}}}, "icon": "https://maps.gstatic.com/mapfiles/place_api/icons/cafe-71.png", "id": "2a643af64bf4bee0cb37bb5113f301a688ee6879", "name": "Poiesis - Casa da Cultura", "photos": [{"height": 4000, "html_attributions": ["<a href=\"https://maps.google.com/maps/contrib/115763384312236991242\">Lucas Morais</a>"], "photo_reference": "CmRaAAAAwscJmro9Jx15ulOfdpl9HCGFP8_buoGBodZ7e9EBwlUP6moSlFFf-vd-w-t8j2_KZ7JcJtEENBS-9nPmJ4D8n7yEu2QydO1XElVkiahJ6lvLdy5viZ9m_-Kr9gNl3dJwEhBQ0mCr_PFiLLPoK8TrrHvxGhR76rgTUA-5O05g0pSW4dK1wVzQog", "width": 3000}], "place_id": "ChIJWToPLGNH8JQRup9QADU5AfM", "plus_code": {"compound_code": "7W3V+7R Centro, Dois Vizinhos - State of Paran\u00e1, Brazil", "global_code": "58687W3V+7R"}, "rating": 4.7, "reference": "ChIJWToPLGNH8JQRup9QADU5AfM", "scope": "GOOGLE", "types": ["cafe", "food", "point_of_interest", "establishment"], "user_ratings_total": 7, "vicinity": "Rua Vereador Enedil Lima, 95 - Centro, Dois Vizinhos"}, {"business_status": "OPERATIONAL", "geometry": {"location": {"lat": -25.7460312, "lng": -53.05525169999999}, "viewport": {"northeast": {"lat": -25.74463326970849, "lng": -53.0538667697085}, "southwest": {"lat": -25.7473312302915, "lng": -53.0565647302915}}}, "icon": "https://maps.gstatic.com/mapfiles/place_api/icons/cafe-71.png", "id": "c518af2c9a7d46b8749ed915ced8cc4fb0047bcc", "name": "DeCaf\u00e9 Cafeteria e Restaurante", "opening_hours": {"open_now": false}, "photos": [{"height": 4000, "html_attributions": ["<a href=\"https://maps.google.com/maps/contrib/116431533794182540167\">Pamela Neckel</a>"], "photo_reference": "CmRaAAAApDJraQeiempt4a30ettXZG7D_JZOHkD0kvIKigmxYvLQPHk3N1j8aWH0bzSwN2Od_Ljym4rI4HM4PC8mV3QNIjyJHODLWkpZ8h2_tvqCRW3BYM2fM7U0kNNJ59YmOw1qEhAg0OjZmthWGenye4dAu9YDGhQuvjtUCswvl3xDrmxQu4vrhJs_ww", "width": 2000}], "place_id": "ChIJbSBifI5H8JQRnW59DdtG_ZI", "plus_code": {"compound_code": "7W3V+HV Centro, Dois Vizinhos - State of Paran\u00e1, Brazil", "global_code": "58687W3V+HV"}, "rating": 4.5, "reference": "ChIJbSBifI5H8JQRnW59DdtG_ZI", "scope": "GOOGLE", "types": ["cafe", "food", "point_of_interest", "establishment"], "user_ratings_total": 64, "vicinity": "Rua Vinte e Oito de Novembro, 26 - Centro, Dois Vizinhos"}, {"business_status": "OPERATIONAL", "geometry": {"location": {"lat": -25.746994, "lng": -53.0537694}, "viewport": {"northeast": {"lat": -25.7456994197085, "lng": -53.0524806697085}, "southwest": {"lat": -25.7483973802915, "lng": -53.0551786302915}}}, "icon": "https://maps.gstatic.com/mapfiles/place_api/icons/shopping-71.png", "id": "5d2d382547028ea30748c9ed8927e211f12e314b", "name": "Kopenhagen", "opening_hours": {"open_now": false}, "photos": [{"height": 768, "html_attributions": ["<a href=\"https://maps.google.com/maps/contrib/111824005147626646141\">Kopenhagen</a>"], "photo_reference": "CmRaAAAAiJ4ZRHexodryyoOcj_YYv5kKjLxSG3LQWVNEJFEWx7CcaOnZVCCcnOnj3Rc0W6wssQXFUceAr5Ts_Uic948f0yvgMqytJZEeQxz075KEosOfjnbuJ98VA9AUx0VpmA0YEhCOTgAtlJl4o75ozL15l7kkGhQLaJ7RUQThVur0PgsuHZSGO_wcGQ", "width": 1024}], "place_id": "ChIJGZqUe8tH8JQRJ5IuamlcnVQ", "plus_code": {"compound_code": "7W3W+6F Centro, Dois Vizinhos - State of Paran\u00e1, Brazil", "global_code": "58687W3W+6F"}, "price_level": 3, "rating": 4.7, "reference": "ChIJGZqUe8tH8JQRJ5IuamlcnVQ", "scope": "GOOGLE", "types": ["cafe", "food", "point_of_interest", "store", "establishment"], "user_ratings_total": 15, "vicinity": "Rua Vinte e Oito de Novembro, 189 - Sala 02 - Centro, Dois Vizinhos"}, {"business_status": "OPERATIONAL", "geometry": {"location": {"lat": -25.7483722, "lng": -53.05731180000001}, "viewport": {"northeast": {"lat": -25.7470374197085, "lng": -53.05595916970849}, "southwest": {"lat": -25.7497353802915, "lng": -53.05865713029149}}}, "icon": "https://maps.gstatic.com/mapfiles/place_api/icons/cafe-71.png", "id": "3f584a0feb8d78db668fd5d27e9bf5c4c6403b74", "name": "Oma Lone Caf\u00e9", "opening_hours": {"open_now": true}, "place_id": "ChIJDSHW55FH8JQR6fo6hlp52LU", "plus_code": {"compound_code": "7W2V+M3 Centro, Dois Vizinhos - State of Paran\u00e1, Brazil", "global_code": "58687W2V+M3"}, "rating": 4.6, "reference": "ChIJDSHW55FH8JQR6fo6hlp52LU", "scope": "GOOGLE", "types": ["cafe", "food", "point_of_interest", "establishment"], "user_ratings_total": 5, "vicinity": "Avenida Prefeito Dedi B. Montagner, 611, Dois Vizinhos"}, {"business_status": "OPERATIONAL", "geometry": {"location": {"lat": -25.7439152, "lng": -53.05474719999999}, "viewport": {"northeast": {"lat": -25.7425569697085, "lng": -53.0533466697085}, "southwest": {"lat": -25.7452549302915, "lng": -53.0560446302915}}}, "icon": "https://maps.gstatic.com/mapfiles/place_api/icons/cafe-71.png", "id": "9f062d16af7407f0640633759850a35f85f64d6c", "name": "Padoka Caf\u00e9", "opening_hours": {"open_now": false}, "photos": [{"height": 631, "html_attributions": ["<a href=\"https://maps.google.com/maps/contrib/107965350414822919586\">Padoka Caf\u00e9</a>"], "photo_reference": "CmRaAAAA6-nuy6mTnRtqHpz331kf_gHdsieQr1idhpmuhruOWg-Y2B50v5NYIIQLBEbqLP26mhp0EjuMJPjaPq60Pcwo9ECrnHwBdclghh-Ikga9D8_i9gSAFHhL3IBIvUR-zix-EhDyc_S81fAIws8gNAxAaN1EGhQoNbdEGH4n9yAl42772_RnjvWb-w", "width": 632}], "place_id": "ChIJrz1SZFJH8JQRNLzQoenoYu0", "plus_code": {"compound_code": "7W4W+C4 Centro, Dois Vizinhos - State of Paran\u00e1, Brazil", "global_code": "58687W4W+C4"}, "reference": "ChIJrz1SZFJH8JQRNLzQoenoYu0", "scope": "GOOGLE", "types": ["cafe", "food", "point_of_interest", "store", "establishment"], "vicinity": "Rua Castro Alves, 345 - Centro, Dois Vizinhos"}, {"business_status": "OPERATIONAL", "geometry": {"location": {"lat": -25.742531, "lng": -53.058364}, "viewport": {"northeast": {"lat": -25.7411340697085, "lng": -53.0570237697085}, "southwest": {"lat": -25.7438320302915, "lng": -53.0597217302915}}}, "icon": "https://maps.gstatic.com/mapfiles/place_api/icons/restaurant-71.png", "id": "46e09c582836fe4293e0689961059b9dcc75bc65", "name": "Panificadora atelie do sabor - doces e salgados", "opening_hours": {"open_now": false}, "photos": [{"height": 3096, "html_attributions": ["<a href=\"https://maps.google.com/maps/contrib/117177293074135597764\">jose junior</a>"], "photo_reference": "CmRaAAAAWOuNvyognKFITmeWWiTGvM79c3vbcCrq6BW9QzwxxZPMoZgsle87JtpUah3FRXtvnNq4_79TtxcSGhhMvIwkBwGLf4x-yulyWPxkc4vTWwANbc-nW8JQKE9CNpNlIbsvEhCD6u2tRg63SxV7xTT6N5gJGhRRQ1sgBAvznvmbr3ZrX2rj2_O71g", "width": 3096}], "place_id": "ChIJK8HcLO1H8JQR5xWZYT9i6Zg", "plus_code": {"compound_code": "7W4R+XM Centro, Dois Vizinhos - State of Paran\u00e1, Brazil", "global_code": "58687W4R+XM"}, "rating": 4.5, "reference": "ChIJK8HcLO1H8JQR5xWZYT9i6Zg", "scope": "GOOGLE", "types": ["bakery", "cafe", "food", "point_of_interest", "store", "establishment"], "user_ratings_total": 13, "vicinity": "Rua do Com\u00e9rcio, 715 - Centro, Dois Vizinhos"}, {"business_status": "OPERATIONAL", "geometry": {"location": {"lat": -25.7529476, "lng": -53.056922}, "viewport": {"northeast": {"lat": -25.7516057197085, "lng": -53.0555714197085}, "southwest": {"lat": -25.75430368029151, "lng": -53.05826938029149}}}, "icon": "https://maps.gstatic.com/mapfiles/place_api/icons/cafe-71.png", "id": "a20c5c4a3f208eb88a827f84bc6319b662b880bf", "name": "Lanchonete Big Lanches", "photos": [{"height": 3474, "html_attributions": ["<a href=\"https://maps.google.com/maps/contrib/111930015104465787196\">Osni Campos</a>"], "photo_reference": "CmRaAAAA26h7qSUdKiNjmRGzW6a9ci2UCMTfGSIfgihFpRjrwDUpOOQZGoPFy_aaV-LC6etHo0mE9W0JERH6ayGWkyNfcmjHBoIMk9zXiAi_wl456jEvgtGg8XVQjKQcQ985PpiwEhCRxpUookEO2FhOUyMvHruPGhQb8KoB-OHZ7p2LTAxnH6YZzOaqEg", "width": 4632}], "place_id": "ChIJs0lIsppH8JQRfsVFE0-nPbk", "plus_code": {"compound_code": "6WWV+R6 Centro Sul, Dois Vizinhos - State of Paran\u00e1, Brazil", "global_code": "58686WWV+R6"}, "rating": 4.2, "reference": "ChIJs0lIsppH8JQRfsVFE0-nPbk", "scope": "GOOGLE", "types": ["cafe", "food", "point_of_interest", "establishment"], "user_ratings_total": 32, "vicinity": "Rua Santo Ant\u00f4nio, 162 - Centro Sul, Dois Vizinhos"}, {"business_status": "OPERATIONAL", "geometry": {"location": {"lat": -25.7462376, "lng": -53.0550052}, "viewport": {"northeast": {"lat": -25.7448554697085, "lng": -53.0536146197085}, "southwest": {"lat": -25.7475534302915, "lng": -53.0563125802915}}}, "icon": "https://maps.gstatic.com/mapfiles/place_api/icons/shopping-71.png", "id": "71de657d54f83a2312803439f276498e0cc25649", "name": "Casa das Armas A Esportiva - Ca\u00e7a, Pesca e Camping", "opening_hours": {"open_now": false}, "photos": [{"height": 2448, "html_attributions": ["<a href=\"https://maps.google.com/maps/contrib/117670242177804590722\">Casa das Armas A Esportiva - Ca\u00e7a, Pesca e Camping</a>"], "photo_reference": "CmRaAAAAHxWQi5D7IxC03J_XnLeRIms4MzmYCug5qDTTvZGJNvDx2X-Vm77astRDYnpc12Uq14HM-i7sKpwVpjnqxGjYjAEG4GgOxrbo_vbi5Mt5DY5tcVZdtPEd9dNJAvn5F6g7EhDY3fCS06crVSeYrX_0AhMbGhRv2BmcTPH9lyxGNqcGMxGIQkaL-w", "width": 3264}], "place_id": "ChIJD9dQjY1H8JQRT77pX-ZLknM", "plus_code": {"compound_code": "7W3V+GX Centro, Dois Vizinhos - State of Paran\u00e1, Brazil", "global_code": "58687W3V+GX"}, "rating": 4.3, "reference": "ChIJD9dQjY1H8JQRT77pX-ZLknM", "scope": "GOOGLE", "types": ["campground", "lodging", "park", "point_of_interest", "clothing_store", "store", "establishment"], "user_ratings_total": 17, "vicinity": "Rua Vinte e Oito de Novembro, 40, Dois Vizinhos"}, {"business_status": "OPERATIONAL", "geometry": {"location": {"lat": -25.7524294, "lng": -53.0605982}, "viewport": {"northeast": {"lat": -25.7510618197085, "lng": -53.0591373197085}, "southwest": {"lat": -25.7537597802915, "lng": -53.0618352802915}}}, "icon": "https://maps.gstatic.com/mapfiles/place_api/icons/shopping-71.png", "id": "0c12f2f8263021aee2f9881b12ff4c0dad3a09da", "name": "Chevrolet Vale do Igua\u00e7u", "opening_hours": {"open_now": false}, "photos": [{"height": 2592, "html_attributions": ["<a href=\"https://maps.google.com/maps/contrib/107724224944855199968\">Jo\u00e3o foxy 3 coterli</a>"], "photo_reference": "CmRaAAAA95t0LFQFOitmBX272qvQL8_OW1dpPp2UhXXPOubBLv1JEo9BTZUJTf1rG4fzC2SirAOmZ7RyIQaTS65Y6ubHj4fHf38sMRcmreX958bxbHrNeB317sFMUzcAkuot441OEhAGk6K3bncAcRsolVnGQDOJGhSLephoeOVc6tsweifPbQq139uM6Q", "width": 4608}], "place_id": "ChIJe7fnHZ1H8JQR9f7LAFDFjMw", "plus_code": {"compound_code": "6WXQ+2Q Centro Sul, Dois Vizinhos - State of Paran\u00e1, Brazil", "global_code": "58686WXQ+2Q"}, "rating": 4.4, "reference": "ChIJe7fnHZ1H8JQR9f7LAFDFjMw", "scope": "GOOGLE", "types": ["car_dealer", "car_repair", "point_of_interest", "store", "establishment"], "user_ratings_total": 106, "vicinity": "Avenida Presidente Kenedy, 120 - Centro Sul, Dois Vizinhos"}, {"business_status": "OPERATIONAL", "geometry": {"location": {"lat": -25.7505232, "lng": -53.05893649999999}, "viewport": {"northeast": {"lat": -25.7492698197085, "lng": -53.0575656197085}, "southwest": {"lat": -25.7519677802915, "lng": -53.06026358029149}}}, "icon": "https://maps.gstatic.com/mapfiles/place_api/icons/shopping-71.png", "id": "6abb287cb0abeb34df8404961474f5a403a1b02a", "name": "Concession\u00e1ria Ford Suvel Dois Vizinhos", "opening_hours": {"open_now": false}, "photos": [{"height": 3120, "html_attributions": ["<a href=\"https://maps.google.com/maps/contrib/111345581730781694796\">Jo\u00e3o Vitor Strapazzon</a>"], "photo_reference": "CmRaAAAAAyxUmS0E9YpYWUxKR6Ywm2s1esubSbz8bezbp2ozVpzRepzYSX56yiD4ONEZvyVBmo8r4jwjsyrHCK-yWuFOIxDF2ctl0IokAUk0QrClYxMZ8NAGovIKvzi2JI_V6A7TEhBHIptttnLME6wOC5wjutuOGhTmHCuqoV_7zt0HBQQcDY3iiUe6vQ", "width": 4160}], "place_id": "ChIJf17QTpBH8JQRjLBcXBXBOMQ", "plus_code": {"compound_code": "6WXR+QC Centro, Dois Vizinhos - State of Paran\u00e1, Brazil", "global_code": "58686WXR+QC"}, "rating": 4.6, "reference": "ChIJf17QTpBH8JQRjLBcXBXBOMQ", "scope": "GOOGLE", "types": ["car_dealer", "point_of_interest", "store", "establishment"], "user_ratings_total": 75, "vicinity": "Avenida Rio Grande do Sul, 680 - Centro, Dois Vizinhos"}, {"business_status": "OPERATIONAL", "geometry": {"location": {"lat": -25.7486997, "lng": -53.05123099999999}, "viewport": {"northeast": {"lat": -25.7473339697085, "lng": -53.0499202197085}, "southwest": {"lat": -25.7500319302915, "lng": -53.0526181802915}}}, "icon": "https://maps.gstatic.com/mapfiles/place_api/icons/shopping-71.png", "id": "8370db1cbbe26433138fd53c481b413828fc5de6", "name": "Deco Ve\u00edculos", "place_id": "ChIJi-2UzYhH8JQRJttleZWN2ok", "plus_code": {"compound_code": "7W2X+GG S\u00e3o Judas Tadeu, Dois Vizinhos - State of Paran\u00e1, Brazil", "global_code": "58687W2X+GG"}, "reference": "ChIJi-2UzYhH8JQRJttleZWN2ok", "scope": "GOOGLE", "types": ["car_dealer", "point_of_interest", "store", "establishment"], "vicinity": "Travessa Santa Catarina - S\u00e3o Judas Tadeu, Dois Vizinhos"}, {"business_status": "OPERATIONAL", "geometry": {"location": {"lat": -25.7495249, "lng": -53.061417}, "viewport": {"northeast": {"lat": -25.74809451970849, "lng": -53.0600878197085}, "southwest": {"lat": -25.7507924802915, "lng": -53.0627857802915}}}, "icon": "https://maps.gstatic.com/mapfiles/place_api/icons/shopping-71.png", "id": "ac5fb2188a2f7bc03584d89eeb447c400bc6e6ca", "name": "Centralcar Multimarcas", "place_id": "ChIJU1WMSJFH8JQRHzreV6vljHc", "plus_code": {"compound_code": "7W2Q+5C Centro, Dois Vizinhos - State of Paran\u00e1, Brazil", "global_code": "58687W2Q+5C"}, "reference": "ChIJU1WMSJFH8JQRHzreV6vljHc", "scope": "GOOGLE", "types": ["car_dealer", "point_of_interest", "store", "establishment"], "vicinity": "Avenida Prefeito Dedi B. Montagner, 1053 - Centro, Dois Vizinhos"}, {"business_status": "OPERATIONAL", "geometry": {"location": {"lat": -25.754989, "lng": -53.057309}, "viewport": {"northeast": {"lat": -25.7534872197085, "lng": -53.0561487697085}, "southwest": {"lat": -25.7561851802915, "lng": -53.0588467302915}}}, "icon": "https://maps.gstatic.com/mapfiles/place_api/icons/shopping-71.png", "id": "cc1a16a5e697f4c9ca8064256fb21d906fec529c", "name": "Placas Igua\u00e7u", "opening_hours": {"open_now": false}, "photos": [{"height": 783, "html_attributions": ["<a href=\"https://maps.google.com/maps/contrib/102045697623009450883\">Placas Dois Vizinhos</a>"], "photo_reference": "CmRaAAAAbfF4s7ICpsioPcubhH5TK_hT3k-2oxJiKSgulHmdHa-rSodoHHOFsOvV7lqo3mmakmCVPf0ZmT5tH1MYBQY1L-NgaQXkm_UQE_iBffGXZVKrKUfwnFEgIQq0eQdI8OtsEhAhxF4tsAcp4FOVcDPlvPeLGhSg6sfY2VMKnlvoAwDJcWnbTs5IyQ", "width": 1262}], "place_id": "ChIJawwLvulH8JQRtQPCs865WOU", "plus_code": {"compound_code": "6WWV+23 Centro Sul, Dois Vizinhos - State of Paran\u00e1, Brazil", "global_code": "58686WWV+23"}, "rating": 4.7, "reference": "ChIJawwLvulH8JQRtQPCs865WOU", "scope": "GOOGLE", "types": ["car_dealer", "point_of_interest", "store", "establishment"], "user_ratings_total": 21, "vicinity": "Rua Salgado Filho, 471 - Centro Sul, Dois Vizinhos"}, {"business_status": "OPERATIONAL", "geometry": {"location": {"lat": -25.752155, "lng": -53.0633373}, "viewport": {"northeast": {"lat": -25.7508203697085, "lng": -53.06206771970849}, "southwest": {"lat": -25.7535183302915, "lng": -53.06476568029149}}}, "icon": "https://maps.gstatic.com/mapfiles/place_api/icons/shopping-71.png", "id": "c8ce62a640ae2aa0167c3ddb8846235675561470", "name": "Route Garage", "opening_hours": {"open_now": false}, "photos": [{"height": 2340, "html_attributions": ["<a href=\"https://maps.google.com/maps/contrib/100329040092414803305\">Route Garage</a>"], "photo_reference": "CmRaAAAAuH8kKCweF4_CCFTOmGFbYz7AaH0uigE28Ch7pO9rtpGdT4kaRBQY8VX92TV0z_ggprlY1rOArlXPZZ-Vc8uN5mUx_FldlR5x2alW6_dw2eiRQkOjQ6c1tWlLvsJB2jQSEhDyLsGHV0plpyfBnMRZZj_PGhTqhmc0FwELIcLg02GtTBGAGZ0izg", "width": 4160}], "place_id": "ChIJl_CLGvY68JQRNmT8vdEp4BQ", "plus_code": {"compound_code": "6WXP+4M Sagrada Fam\u00edlia, Dois Vizinhos - State of Paran\u00e1, Brazil", "global_code": "58686WXP+4M"}, "rating": 4.6, "reference": "ChIJl_CLGvY68JQRNmT8vdEp4BQ", "scope": "GOOGLE", "types": ["car_dealer", "car_repair", "point_of_interest", "store", "establishment"], "user_ratings_total": 5, "vicinity": "Rua Clevel\u00e2ndia, 229, Dois Vizinhos"}, {"business_status": "OPERATIONAL", "geometry": {"location": {"lat": -25.750895, "lng": -53.0643621}, "viewport": {"northeast": {"lat": -25.7495184697085, "lng": -53.06301991970849}, "southwest": {"lat": -25.7522164302915, "lng": -53.06571788029149}}}, "icon": "https://maps.gstatic.com/mapfiles/place_api/icons/shopping-71.png", "id": "31ac7fc1a89df47cc518fbfaaacb3d4e2e54236e", "name": "Joel Consorcio", "place_id": "ChIJ0YiV5lZH8JQRYXJ3Flyt8xU", "plus_code": {"compound_code": "6WXP+J7 Sagrada Fam\u00edlia, Dois Vizinhos - State of Paran\u00e1, Brazil", "global_code": "58686WXP+J7"}, "reference": "ChIJ0YiV5lZH8JQRYXJ3Flyt8xU", "scope": "GOOGLE", "types": ["car_dealer", "point_of_interest", "store", "establishment"], "vicinity": "Rua Soledade, 208-288 - Sagrada Fam\u00edlia, Dois Vizinhos"}, {"business_status": "OPERATIONAL", "geometry": {"location": {"lat": -25.7549612, "lng": -53.05955580000001}, "viewport": {"northeast": {"lat": -25.7536233697085, "lng": -53.0582660697085}, "southwest": {"lat": -25.7563213302915, "lng": -53.0609640302915}}}, "icon": "https://maps.gstatic.com/mapfiles/place_api/icons/shopping-71.png", "id": "fc778c10dd9adb0cacb8020fa83e66cc549e15bb", "name": "Divel-Distr.De Veics.Ltda", "photos": [{"height": 960, "html_attributions": ["<a href=\"https://maps.google.com/maps/contrib/111376455742159559676\">Antonio Pal\u00e1cio</a>"], "photo_reference": "CmRaAAAAOj6aKkm8Jc5zk0HbmB3jhsZFEmVY3n6EiL7r3cenaTHAc8NwoNfzSsVGtL5cyxRUJCA5gbJe-PAYCnNfMmcghom9pTUdEJD6Q_V9QZGlId_EG55SkCQpSvOlDkPf6m9ZEhDHkptaz1z1GqnyWMHcqgycGhQp83kEGWQCQjZ3yEeP9yuNgY3KTQ", "width": 712}], "place_id": "ChIJM5Bge39H8JQRG73FQxBEJv4", "plus_code": {"compound_code": "6WWR+25 Centro Sul, Dois Vizinhos - State of Paran\u00e1, Brazil", "global_code": "58686WWR+25"}, "rating": 4.4, "reference": "ChIJM5Bge39H8JQRG73FQxBEJv4", "scope": "GOOGLE", "types": ["car_dealer", "point_of_interest", "store", "establishment"], "user_ratings_total": 95, "vicinity": "Avenida Presidente Kenedy, 463/501 - Centro Sul, Dois Vizinhos"}, {"business_status": "OPERATIONAL", "geometry": {"location": {"lat": -25.7549575, "lng": -53.0599929}, "viewport": {"northeast": {"lat": -25.7535890697085, "lng": -53.05853766970851}, "southwest": {"lat": -25.7562870302915, "lng": -53.06123563029151}}}, "icon": "https://maps.gstatic.com/mapfiles/place_api/icons/shopping-71.png", "id": "5408cb1bf86e560bb2793f08f0c9c2db6558fc5a", "name": "Meu Carro Usado", "opening_hours": {"open_now": false}, "place_id": "ChIJhWOtWppH8JQRCvwLWNVlhF8", "plus_code": {"compound_code": "6WWR+22 Centro Sul, Dois Vizinhos - State of Paran\u00e1, Brazil", "global_code": "58686WWR+22"}, "reference": "ChIJhWOtWppH8JQRCvwLWNVlhF8", "scope": "GOOGLE", "types": ["car_dealer", "point_of_interest", "store", "establishment"], "vicinity": "Avenida Presidente Kenedy, 436 - Centro Sul, Dois Vizinhos"}, {"business_status": "OPERATIONAL", "geometry": {"location": {"lat": -25.7555731, "lng": -53.059729}, "viewport": {"northeast": {"lat": -25.7542131697085, "lng": -53.05832821970851}, "southwest": {"lat": -25.75691113029151, "lng": -53.06102618029151}}}, "icon": "https://maps.gstatic.com/mapfiles/place_api/icons/shopping-71.png", "id": "27ebec3aabfdc416f44b5860f77788c0957a2f72", "name": "Zanvel Zanella Ve\u00edculos Ltda", "opening_hours": {"open_now": false}, "place_id": "ChIJl9fPtptH8JQRVt3-SjzT9Ug", "plus_code": {"compound_code": "6WVR+Q4 Centro Sul, Dois Vizinhos - State of Paran\u00e1, Brazil", "global_code": "58686WVR+Q4"}, "rating": 5, "reference": "ChIJl9fPtptH8JQRVt3-SjzT9Ug", "scope": "GOOGLE", "types": ["car_dealer", "point_of_interest", "store", "establishment"], "user_ratings_total": 1, "vicinity": "Avenida Presidente Kenedy, 486, Dois Vizinhos"}, {"business_status": "OPERATIONAL", "geometry": {"location": {"lat": -25.75172509999999, "lng": -53.0678897}, "viewport": {"northeast": {"lat": -25.7503334197085, "lng": -53.06641301970851}, "southwest": {"lat": -25.7530313802915, "lng": -53.06911098029151}}}, "icon": "https://maps.gstatic.com/mapfiles/place_api/icons/shopping-71.png", "id": "75a40c00ebf1ab1b2087293933f0cc1fce843b86", "name": "CONSORCIOS ALVES", "photos": [{"height": 3505, "html_attributions": ["<a href=\"https://maps.google.com/maps/contrib/105988962162550864888\">Joel Alves</a>"], "photo_reference": "CmRaAAAABwZeisGMBSuCyFDZ65hecP3qXi3EcVlcZ3SOMPXUiarbLcKswfXECkjZnX5Xr6JcTSU4CLBgxhkBJeG6xc1Xisfccf2cnshFv4m3sPN0qnyk5o2Juw58jwsLbmfbSgjlEhCw5TN3_JRmAehJh8PQBt1nGhRP9YDzG1p67AfdZHJlttNdTZF7bA", "width": 3722}], "place_id": "ChIJJwtIVQNH8JQRdR6ru9qGPCc", "plus_code": {"compound_code": "6WXJ+8R Esperan\u00e7a, Dois Vizinhos - State of Paran\u00e1, Brazil", "global_code": "58686WXJ+8R"}, "reference": "ChIJJwtIVQNH8JQRdR6ru9qGPCc", "scope": "GOOGLE", "types": ["car_dealer", "point_of_interest", "store", "establishment"], "vicinity": "Rua Santos Dumont, 136 - Esperan\u00e7a, Dois Vizinhos"}, {"business_status": "OPERATIONAL", "geometry": {"location": {"lat": -25.7574809, "lng": -53.04954000000001}, "viewport": {"northeast": {"lat": -25.75611731970849, "lng": -53.0481943197085}, "southwest": {"lat": -25.7588152802915, "lng": -53.0508922802915}}}, "icon": "https://maps.gstatic.com/mapfiles/place_api/icons/shopping-71.png", "id": "4016d6d50c5e5df899119c3b47a9ad24707e320e", "name": "Firenze Ve\u00edculos", "opening_hours": {"open_now": false}, "place_id": "ChIJo5icCYFH8JQRgwL882kL-5g", "plus_code": {"compound_code": "6XV2+25 S\u00e3o Francisco Xavier, Dois Vizinhos - State of Paran\u00e1, Brazil", "global_code": "58686XV2+25"}, "rating": 4, "reference": "ChIJo5icCYFH8JQRgwL882kL-5g", "scope": "GOOGLE", "types": ["car_dealer", "point_of_interest", "store", "establishment"], "user_ratings_total": 2, "vicinity": "Rua Paran\u00e1, 281, Dois Vizinhos"}, {"business_status": "OPERATIONAL", "geometry": {"location": {"lat": -25.7495249, "lng": -53.06141710000001}, "viewport": {"northeast": {"lat": -25.74809451970849, "lng": -53.0600879197085}, "southwest": {"lat": -25.7507924802915, "lng": -53.0627858802915}}}, "icon": "https://maps.gstatic.com/mapfiles/place_api/icons/generic_business-71.png", "id": "7840ac4f45088d7ddb5d363da1fa0309790ab04f", "name": "Autovizi - Locadora de Veiculos", "opening_hours": {"open_now": false}, "photos": [{"height": 3456, "html_attributions": ["<a href=\"https://maps.google.com/maps/contrib/112262637533363735848\">Autovizi - Locadora de Veiculos</a>"], "photo_reference": "CmRaAAAA7yhqBaj0BpLfR1EZ0jMRat-XNGbTozH_jgUilAw9EDECE9qbOOa9kxfPwhhwIzxjSonI9V6jSKxJFmEo01zQ5ptevK3wQfaTqECvm5CDiaQDfbPwtuiow3uBqFraAQmgEhD9bo7Ym2R9o2bVPA1SmvcpGhQivktO1xGCTxVMwVZFDdaA1xoyYw", "width": 4608}], "place_id": "ChIJxdIGZ1FH8JQRpNykp7bDhVQ", "plus_code": {"compound_code": "7W2Q+5C Centro Sul, Dois Vizinhos - State of Paran\u00e1, Brazil", "global_code": "58687W2Q+5C"}, "rating": 4.6, "reference": "ChIJxdIGZ1FH8JQRpNykp7bDhVQ", "scope": "GOOGLE", "types": ["car_rental", "point_of_interest", "establishment"], "user_ratings_total": 9, "vicinity": "Avenida Prefeito Dedi B. Montagner, 1053 - Centro Sul, Dois Vizinhos"}, {"business_status": "OPERATIONAL", "geometry": {"location": {"lat": -25.7524294, "lng": -53.0605982}, "viewport": {"northeast": {"lat": -25.7510618197085, "lng": -53.0591373197085}, "southwest": {"lat": -25.7537597802915, "lng": -53.0618352802915}}}, "icon": "https://maps.gstatic.com/mapfiles/place_api/icons/shopping-71.png", "id": "0c12f2f8263021aee2f9881b12ff4c0dad3a09da", "name": "Chevrolet Vale do Igua\u00e7u", "opening_hours": {"open_now": false}, "photos": [{"height": 2592, "html_attributions": ["<a href=\"https://maps.google.com/maps/contrib/107724224944855199968\">Jo\u00e3o foxy 3 coterli</a>"], "photo_reference": "CmRaAAAAirp10SXXVKA4Smr-_lDnQbmXiR2uYZJZZnNtgobIw1sXcZzdtstNfVKkSs2Uk0dokjZs0FIndlIosl_LfkTkvsGz0NLT0i4HbjQGkFdNVgd-eKWgTxYU-8M3J3UdjUOoEhCaYkXE1hyADoZviZhq0J9gGhQftOakPS9GvoMwixj7bRrvZePFGw", "width": 4608}], "place_id": "ChIJe7fnHZ1H8JQR9f7LAFDFjMw", "plus_code": {"compound_code": "6WXQ+2Q Centro Sul, Dois Vizinhos - State of Paran\u00e1, Brazil", "global_code": "58686WXQ+2Q"},